[{"name": "サンゲームス串木野店", "address": "鹿児島県いちき串木野市東塩田町1番地 ニシムタいちき串木野", "gameIds": ["carddass_168", "carddass_239", "carddass_403", "carddass_418", "carddass_454", "konami_GITADORADM", "konami_IIDX", "konami_JUBEAT", "konami_MFCU", "konami_MFCU_STD", "konami_PMSP", "konami_SDVX", "namco_gundam-kizuna", "sega_24", "sega_94"], "latitude": 31.7229549, "longitude": 130.2727591}, {"name": "ブックオフいわき平店", "address": "福島県いわき市平上荒川砂屋戸27-3", "gameIds": ["konami_MFCU", "konami_MFCU_NEW"], "latitude": 37.0382221, "longitude": 140.8907978}, {"name": "カメレオンクラブいわき植田店", "address": "福島県いわき市東田町1-28-1", "gameIds": ["konami_MFCU", "konami_MFCU_NEW"], "latitude": 36.922392, "longitude": 140.800547}, {"name": "プレイランドプレビ平店", "address": "福島県いわき市平6-6-2イトーヨーカ堂内", "gameIds": ["konami_DAN", "konami_JUBEAT", "konami_TSUM"], "latitude": 37.05761795, "longitude": 140.8983363}, {"name": "プレイランドプレビ鹿島店", "address": "福島県いわき市鹿島町米田字日渡5鹿島ショッピングセンターエブリア内", "gameIds": ["konami_JUBEAT", "konami_REFLECC", "konami_TSUM"], "latitude": 36.99386771, "longitude": 140.9054899}, {"name": "あひるのたまご泉", "address": "福島県いわき市泉町滝尻 字折返57 ヨークベニマルいわき泉店内", "gameIds": ["namco_taiko"], "latitude": 36.953677, "longitude": 140.861317}, {"name": "トイザらスいわき店", "address": "福島県いわき市平谷川瀬字双藤町53-1 トイザらスいわき", "gameIds": ["carddass_168", "carddass_239", "carddass_403", "carddass_418", "carddass_454", "carddass_458"], "latitude": 37.0463122, "longitude": 140.9005217}, {"name": "鹿島エブリアプレビプレイランド", "address": "福島県いわき市鹿島町米田日渡5 鹿島ショッピングセンターエブリア2階プレビプレイランド", "gameIds": ["carddass_168", "carddass_239", "carddass_403", "carddass_418", "carddass_454", "carddass_458"], "latitude": 36.994128, "longitude": 140.905189}, {"name": "ヨークベニマル泉店内プレビプレイランド店", "address": "福島県いわき市泉町滝尻折返57 ヨークベニマルいわき泉1階プレビプレイランド", "gameIds": ["carddass_239", "carddass_403", "carddass_418", "carddass_454", "carddass_458"], "latitude": 36.953525, "longitude": 140.861274}, {"name": "MEGAドン・キホーテラパークいわき店", "address": "福島県いわき市中央台飯野4-1 MEGAドン・キホーテラパークいわき", "gameIds": ["carddass_239", "carddass_403", "carddass_418", "carddass_454"], "latitude": 37.0124699, "longitude": 140.9165912}, {"name": "イトーヨーカドー平店内プレビプレイランド店", "address": "福島県いわき市平6丁目6番地2イトーヨーカドー平店内プレビプレイランドコーナーこころっこ", "gameIds": ["carddass_168", "carddass_239", "carddass_403", "carddass_418", "carddass_454", "carddass_458"], "latitude": 37.0903503, "longitude": 140.8886748}, {"name": "らくだのせなか鹿島エブリア", "address": "福島県いわき市鹿島町米田字日渡 5 鹿島エブリアSC2F", "gameIds": ["namco_mariokart-acgpdx", "namco_synchronica", "namco_taiko", "namco_wanganmaxi6", "sega_58", "sega_82", "sega_87", "sega_88", "sega_89", "sega_94", "sega_96"], "latitude": 36.99372904670128, "longitude": 140.9051074957008}, {"name": "嶺宝スポーツセンター", "address": "福島県いわき市小名浜住吉字折返 2-2", "gameIds": ["konami_BOMBERGIRL", "konami_DAN", "konami_DDR", "konami_GITADORADM", "konami_GITADORAGF", "konami_IIDX", "konami_JUBEAT", "konami_MFCU", "konami_MFCU_HG", "konami_MFCU_NEW", "konami_NOSTALGIA", "konami_PCHARGER", "konami_PMSP", "konami_QMA9", "konami_REFLECC", "konami_SDVX", "namco_gundam-kizuna", "namco_gundam-vs-extreme-ac2", "namco_gundam-vs-extreme-acmb-on", "namco_taiko", "namco_wanganmaxi6", "sega_29", "sega_34", "sega_58", "sega_78", "sega_87", "sega_88", "sega_89", "sega_96", "sega_kancolle-arcade"], "latitude": 36.9742494549186, "longitude": 140.89055803254087}, {"name": "プレビ イトーヨーカ堂平店", "address": "福島県いわき市平 6-6-2 イトーヨーカドー平店4F", "gameIds": ["namco_taiko", "sega_58", "sega_88", "sega_94", "sega_96"], "latitude": 37.0576598, "longitude": 140.8991416}, {"name": "アミューズパークいわき店", "address": "福島県いわき市常磐関船町 宮下4-1", "gameIds": ["konami_MFCU", "konami_MFCU_NEW", "namco_taiko", "sega_29", "sega_78"], "latitude": 36.99361970856415, "longitude": 140.8624567846557}, {"name": "アミューズパークいわき神谷店", "address": "福島県いわき市平下神谷 字馬洗7-1", "gameIds": ["konami_GITADORADM", "konami_GITADORAGF", "konami_MFCU", "konami_MFCU_NEW", "namco_taiko", "sega_29"], "latitude": 37.065265855731866, "longitude": 140.94263148650816}, {"name": "ソユーゲームフィールド小名浜店", "address": "福島県いわき市いわき都市計画小名浜港背後地震災復興土地区画整理事業地内 イオンモールいわき小名浜 3階(区画NO.3002-1)", "gameIds": ["namco_mariokart-acgpdx", "namco_saoac", "namco_taiko", "namco_wanganmaxi6", "sega_58", "sega_78", "sega_88", "sega_89", "sega_93", "sega_94", "sega_96", "sega_kancolle-arcade", "taito_denshadego", "taito_lovelive-sifacns", "taito_starwing"], "latitude": 36.9468192, "longitude": 140.9037941}, {"name": "セガワールド勿来", "address": "福島県いわき市勿来町四沢鍵田13 セガ勿来", "gameIds": ["carddass_168", "carddass_239", "carddass_418", "carddass_458", "konami_NOSTALGIA", "namco_gundam-kizuna", "namco_mariokart-acgpdx", "namco_taiko", "sega_29", "sega_34", "sega_43", "sega_58", "sega_60", "sega_72", "sega_76", "sega_78", "sega_86", "sega_88", "sega_89", "sega_91", "sega_96", "sega_kancolle-arcade", "taito_dff"], "latitude": 36.88907200458248, "longitude": 140.78456335767214, "logo": "sega"}, {"name": "セガ小名浜", "address": "福島県いわき市小名浜林城字塚前18-1 セガ小名浜", "gameIds": ["carddass_168", "carddass_239", "carddass_418", "carddass_458", "konami_NOSTALGIA", "namco_gundam-kizuna", "namco_gundam-vs-extreme-ac2", "namco_mariokart-acgpdx", "namco_taiko", "namco_tk7fr-r2", "namco_wanganmaxi6", "sega_24", "sega_29", "sega_34", "sega_43", "sega_58", "sega_60", "sega_76", "sega_78", "sega_82", "sega_85", "sega_86", "sega_88", "sega_89", "sega_91", "sega_96", "sega_kancolle-arcade", "taito_dff", "taito_groovecoaster"], "latitude": 36.985930372489236, "longitude": 140.89713489999997, "logo": "sega"}, {"name": "モーリーファンタジーいわき店", "address": "福島県いわき市平字三倉 68-1 イオンいわき店3F", "gameIds": ["carddass_168", "carddass_239", "carddass_418", "carddass_454", "carddass_458", "carddass_481", "konami_JUBEAT", "konami_PMSP", "konami_REFLECC", "konami_SDVX", "konami_TSUM", "namco_mariokart-acgpdx", "namco_taiko", "namco_wanganmaxi6", "sega_34", "sega_47", "sega_58", "sega_82", "sega_96"], "latitude": 37.0510809, "longitude": 140.8981859}, {"name": "ドリームファクトリー いわき店", "address": "福島県いわき市中央台飯野4-1 MEGAドン・キホーテラパークいわき", "gameIds": ["carddass_168", "carddass_239", "carddass_418", "carddass_454", "carddass_458", "konami_IIDX", "konami_JUBEAT", "konami_MFCU", "konami_MFCU_NEW", "konami_PANIC", "konami_PCHARGER", "konami_QMA9", "konami_REFLECC", "konami_SDVX", "konami_WEAC2014ALL", "konami_WEAC2014STD", "namco_db-zenkai", "namco_gundam-kizuna", "namco_gundam-vs-extreme-ac2", "namco_taiko", "namco_tk7fr-r2", "namco_wanganmaxi6", "sega_24", "sega_29", "sega_58", "sega_60", "sega_85", "sega_89", "sega_94", "taito_groovecoaster", "taito_nxl", "taito_nxl2"], "latitude": 37.0124699, "longitude": 140.9165912}, {"name": "モーリーファンタジーいわき小名浜店", "address": "福島県いわき市いわき都市計画小名浜港背後地 震災復興土地区画整理事業地内 イオンモールいわき小名浜 イオンスタイルいわき小名浜4F", "gameIds": ["konami_TSUM", "namco_mariokart-acgpdx", "namco_taiko"], "latitude": 36.946737, "longitude": 140.903048}, {"name": "ちびっこザウルス", "address": "福島県いわき市小名浜大原字東田 96 ヨークタウンアクロスプラザ大原1F", "gameIds": ["carddass_168", "carddass_239", "carddass_403", "carddass_418", "carddass_454", "carddass_458", "carddass_481", "namco_lostland", "namco_taiko"], "latitude": 36.966641, "longitude": 140.889209}, {"name": "スパリゾートハワイアンズゲームコーナー", "address": "福島県いわき市常磐藤原町蕨平 50 スパリゾートハワイアンズ アミューズメント館1F", "gameIds": ["carddass_239", "carddass_403", "carddass_418", "carddass_481", "namco_taiko"], "latitude": 36.993723, "longitude": 140.81628}, {"name": "MECHAうるま", "address": "沖縄県うるま市塩屋浜原 502-1 MECHAドン・キホーテうるま店内", "gameIds": ["namco_taiko"], "latitude": 26.344653, "longitude": 127.856841}, {"name": "サンエー具志川メインシティ内アミューズメントコーナー", "address": "沖縄県うるま市江洲 450-1 サンエー具志川メインシティ1F", "gameIds": ["namco_taiko"], "latitude": 26.352756, "longitude": 127.825631}, {"name": "NAMCOLAND具志川店", "address": "沖縄県うるま市字前原幸崎原303番地 イオン具志川ショッピングセンター内 2F", "gameIds": ["carddass_168", "carddass_239", "carddass_403", "carddass_418", "carddass_458", "konami_ANIMAL5", "konami_BOMBER_MEDAL", "konami_DAN", "konami_FEATUREPREMIUM", "konami_MARBLEFEVER", "konami_SDVX", "namco_mariokart-acgpdx", "namco_synchronica", "namco_taiko", "namco_wanganmaxi6", "sega_58", "sega_87", "sega_88", "sega_93", "sega_96", "taito_groovecoaster"], "latitude": 26.338368568166477, "longitude": 127.84468092763063, "logo": "namco"}, {"name": "ミルキーズ サンエー具志川店", "address": "沖縄県うるま市江洲450-1 サンエー具志川メインシティ1F", "gameIds": ["carddass_239", "carddass_418", "carddass_458", "carddass_481", "konami_IIDX", "sega_47", "sega_72"], "latitude": 26.3527561, "longitude": 127.8256309}, {"name": "モーリーファンタジー具志川店", "address": "沖縄県うるま市前原幸崎原 303 イオン具志川SC イオン具志川店2F", "gameIds": ["carddass_168", "carddass_239", "carddass_403", "carddass_418", "carddass_454", "carddass_458", "carddass_481", "konami_TSUM", "namco_mariokart-acgpdx", "namco_taiko"], "latitude": 26.338361, "longitude": 127.844692}, {"name": "アプレシオイオンかほく店", "address": "石川県かほく市宇ノ気ロ10", "gameIds": ["konami_MFCU", "konami_MFCU_NEW"], "latitude": 36.71131, "longitude": 136.703254}, {"name": "バイパスレジャーランド宇ノ気店", "address": "石川県かほく市森子85 バイパスレジャーランド宇ノ気", "gameIds": ["carddass_168", "carddass_239", "carddass_418", "konami_ANIMAL5", "konami_BBC", "konami_BOMBERGIRL", "konami_COLORCOLOTTA3", "konami_EKEC2", "konami_FEATUREPREMIUM", "konami_GITADORADM", "konami_GITADORAGF", "konami_IIDX", "konami_JUBEAT", "konami_MFCU", "konami_MFCU_NEW", "konami_MILLIONET", "konami_NOSTALGIA", "konami_PCHARGER", "konami_PMSP", "konami_REFLECC", "konami_SDVX", "konami_SHOGI2", "konami_dreamsphere", "namco_db-zenkai", "namco_gundam-vs-extreme-ac2", "namco_mariokart-acgpdx", "namco_saoac", "namco_taiko", "namco_tk7fr-r2", "namco_wanganmaxi6", "sega_24", "sega_29", "sega_43", "sega_58", "sega_60", "sega_76", "sega_78", "sega_85", "sega_86", "sega_88", "sega_89", "sega_91", "sega_92", "sega_93", "sega_94", "sega_96", "sega_kancolle-arcade", "taito_groovecoaster", "taito_lovelive-sifacns", "taito_nxl2", "taito_starwing", "taito_t_ffac"], "latitude": 36.709940379883264, "longitude": 136.70674790531007}, {"name": "namcoイオンモールかほく店", "address": "石川県かほく市内日角タ25番イオンモールかほく店2F ナムコランドイオンモールかほく店内", "gameIds": ["carddass_168", "carddass_239", "carddass_403", "carddass_418", "carddass_458", "namco_mariokart-acgpdx", "namco_synchronica", "namco_taiko", "sega_58"], "latitude": 36.70898749035245, "longitude": 136.70131181766294, "logo": "namco"}, {"name": "モーリーファンタジーかほく店", "address": "石川県かほく市内日角 タ25 イオンモールかほく イオンかほく店2F", "gameIds": ["carddass_168", "carddass_239", "carddass_403", "carddass_418", "carddass_454", "carddass_458", "carddass_481", "konami_TSUM", "namco_mariokart-acgpdx", "namco_taiko"], "latitude": 36.708954, "longitude": 136.701291}, {"name": "セガ与野", "address": "埼玉県さいたま市中央区本町西 5-2-9 イオンモール与野3F", "gameIds": ["carddass_168", "carddass_239", "carddass_418", "carddass_458", "konami_ANIMAL5", "konami_MILLIONET", "namco_mariokart-acgpdx", "namco_taiko", "sega_58", "sega_60", "sega_78", "sega_86", "sega_87", "sega_88", "sega_89", "sega_91", "sega_94", "sega_96", "sega_kancolle-arcade"], "latitude": 35.89063329770034, "longitude": 139.61510160898433, "logo": "sega"}, {"name": "モーリーファンタジー与野店", "address": "埼玉県さいたま市中央区本町西 5-2-9 イオンモール与野 イオン与野店3F", "gameIds": ["carddass_168", "carddass_239", "carddass_403", "carddass_418", "carddass_454", "carddass_458", "carddass_481", "konami_TSUM", "namco_mariokart-acgpdx", "namco_taiko"], "latitude": 35.891392, "longitude": 139.614597}, {"name": "アミューズメントベネクス浦和店", "address": "埼玉県さいたま市南区辻 7-2-8", "gameIds": ["konami_ANIMAL5", "konami_BOMBERGIRL", "konami_COLORCOLOTTA3", "konami_CVM", "konami_EKEC2", "konami_FEATUREPREMIUM", "konami_IIDX", "konami_MARBLEFEVER", "konami_MFCU", "konami_MFCU_NEW", "konami_MILLIONET", "konami_PANIC", "konami_TD", "namco_gundam-vs-extreme-ac2", "namco_wanganmaxi6", "sega_29", "sega_43", "sega_6", "sega_60", "sega_76", "sega_78", "sega_86", "sega_91"], "latitude": 35.834549, "longitude": 139.6681004}, {"name": "プレイスポットビッグワンセカンド", "address": "埼玉県さいたま市南区南浦和2-27-12 アビアントビル2F", "gameIds": ["sega_24", "taito_nxl", "taito_nxl2"], "latitude": 35.84889077285534, "longitude": 139.67064475456164}, {"name": "フタバ図書GIGA武蔵浦和店", "address": "埼玉県さいたま市南区沼影 3-5-15", "gameIds": ["carddass_239", "carddass_403", "carddass_418", "carddass_458", "namco_taiko", "sega_78", "sega_94"], "latitude": 35.8377538, "longitude": 139.6510713}, {"name": "GIGA大宮", "address": "埼玉県さいたま市大宮区上小町 639", "gameIds": ["namco_taiko"], "latitude": 35.900653, "longitude": 139.607532}, {"name": "キッズプラザさいたま新都心", "address": "埼玉県さいたま市大宮区吉敷町 4-263-1 コクーンシティ コクーン2 3F", "gameIds": ["namco_taiko"], "latitude": 35.894791, "longitude": 139.636569}, {"name": "ヨドバシカメラマルチメディアさいたま新都心駅前店", "address": "埼玉県さいたま市大宮区吉敷町4-263-6 ヨドバシカメラマルチメディアさいたま新都心駅前", "gameIds": ["carddass_168", "carddass_239", "carddass_403", "carddass_418", "carddass_454", "carddass_458", "carddass_481"], "latitude": 35.8955136, "longitude": 139.6344178}, {"name": "ビックカメラ大宮西口そごう店", "address": "埼玉県さいたま市大宮区桜木町1-8ー4ビックカメラ大宮西口そごう店2階 おもちゃ売り場", "gameIds": ["carddass_168", "carddass_239", "carddass_403", "carddass_418", "carddass_454", "carddass_458"], "latitude": 35.9045068, "longitude": 139.6210016}, {"name": "ラウンドワン大宮店", "address": "埼玉県さいたま市大宮区宮町4丁目90番地7", "gameIds": ["konami_COLORCOLOTTA3", "konami_DAN", "konami_DDR", "konami_DDR20TH", "konami_EKEC2", "konami_FEATUREPREMIUM", "konami_FTRI3", "konami_GITADORADM", "konami_GITADORAGF", "konami_IIDX", "konami_JUBEAT", "konami_MARBLEFEVER", "konami_MFCU", "konami_MFCU_HG", "konami_MFCU_NEW", "konami_MILLIONET", "konami_NOSTALGIA", "konami_PANIC", "konami_PCHARGER", "konami_PMSP", "konami_QMA9", "konami_REFLECC", "konami_SDVX", "konami_SPINFEVER3", "konami_TD", "konami_TSUM", "namco_gundam-vs-extreme-ac2", "namco_mariokart-acgpdx", "namco_taiko", "namco_wanganmaxi6", "sega_29", "sega_34", "sega_43", "sega_58", "sega_60", "sega_76", "sega_86", "sega_88", "sega_89", "sega_91", "sega_96", "sega_kancolle-arcade", "taito_dff", "taito_groovecoaster", "taito_t_ffac"], "latitude": 35.9108281, "longitude": 139.6254402, "logo": "round1"}, {"name": "Spica大宮南銀店", "address": "埼玉県さいたま市大宮区仲町 1-57 桂ビル", "gameIds": ["konami_BBC", "konami_BBCH", "konami_BOMBERGIRL", "konami_DAN", "konami_DDR", "konami_DDR20TH", "konami_GITADORAGF", "konami_IIDX", "konami_JUBEAT", "konami_MFCU", "konami_MFCU_HG", "konami_MFCU_NEW", "konami_NOSTALGIA", "konami_PCHARGER", "konami_PMSP", "konami_QMA9", "konami_REFLECC", "konami_SDVX", "konami_TSUM", "konami_WEAC2014ALL", "konami_WEAC2014STD", "namco_db-zenkai", "namco_gundam-vs-extreme-ac2", "namco_saoac", "namco_taiko", "namco_tk7fr-r2", "namco_wanganmaxi6", "sega_24", "sega_29", "sega_34", "sega_43", "sega_47", "sega_58", "sega_60", "sega_76", "sega_88", "sega_89", "sega_91", "sega_92", "sega_93", "sega_96", "sega_kancolle-arcade", "taito_denshadego", "taito_dff", "taito_groovecoaster", "taito_lovelive-sifacns", "taito_nxl", "taito_nxl2", "taito_starwing", "taito_t_ffac"], "latitude": 35.9052095, "longitude": 139.6260124}, {"name": "アピナ大宮店", "address": "埼玉県さいたま市大宮区仲町 1-19 大東ビルB1・1F", "gameIds": ["konami_BOMBERGIRL", "konami_CVM", "konami_EKEC2", "konami_GITADORADM", "konami_GITADORAGF", "konami_IIDX", "konami_JUBEAT", "konami_MFCU", "konami_MFCU_NEW", "konami_NOSTALGIA", "konami_PCHARGER", "konami_REFLECC", "konami_SDVX", "konami_TD", "namco_gundam-kizuna", "namco_gundam-vs-extreme-ac2", "namco_taiko", "namco_tk7fr-r2", "namco_wanganmaxi6", "sega_29", "sega_43", "sega_58", "sega_60", "sega_76", "sega_78", "sega_86", "sega_88", "sega_89", "sega_91", "sega_93", "sega_94", "sega_96", "sega_kancolle-arcade", "taito_lovelive-sifacns"], "latitude": 35.9052678, "longitude": 139.6264401}, {"name": "タイトーFステーションダイエー大宮店", "address": "埼玉県さいたま市大宮区桜木町2丁目3番地 大宮西口共同ビル 6F", "gameIds": ["carddass_168", "carddass_239", "carddass_403", "carddass_418", "carddass_454", "carddass_458", "konami_DAN", "konami_IIDX", "konami_JUBEAT", "konami_PCHARGER", "konami_PMSP", "konami_SDVX", "namco_mariokart-acgpdx", "namco_taiko", "namco_wanganmaxi6", "sega_34", "sega_58", "sega_88", "sega_94", "sega_96", "taito_denshadego", "taito_lovelive-sifacns"], "latitude": 35.9068898, "longitude": 139.6217932, "logo": "taito"}, {"name": "タイトーステーション 大宮店", "address": "埼玉県さいたま市大宮区大門町一丁目1番地 タイトーステーション大宮", "gameIds": ["carddass_168", "carddass_239", "carddass_418", "carddass_458", "konami_BBC", "konami_BOMBERGIRL", "konami_DAN", "konami_DDR", "konami_GITADORADM", "konami_GITADORAGF", "konami_IIDX", "konami_JUBEAT", "konami_MFCU", "konami_MFCU_HG", "konami_MFCU_NEW", "konami_NOSTALGIA", "konami_PCHARGER", "konami_PMSP", "konami_QMA9", "konami_REFLECC", "konami_SDVX", "konami_SHOGI2", "namco_db-zenkai", "namco_gundam-vs-extreme-ac2", "namco_mariokart-acgpdx", "namco_taiko", "namco_tk7fr-r2", "namco_wanganmaxi6", "sega_34", "sega_43", "sega_58", "sega_60", "sega_76", "sega_78", "sega_87", "sega_88", "sega_89", "sega_91", "sega_92", "sega_94", "sega_96", "sega_kancolle-arcade", "taito_denshadego", "taito_dff", "taito_groovecoaster", "taito_lovelive-sifacns", "taito_nxl", "taito_nxl2", "taito_starwing"], "latitude": 35.90744667623512, "longitude": 139.6255973944775, "logo": "taito"}, {"name": "キャラポートさいたま新都心店", "address": "埼玉県さいたま市大宮区吉敷町 4-267-2 コクーンシティ コクーン1西館1F", "gameIds": ["carddass_239", "carddass_418", "namco_mariokart-acgpdx", "namco_taiko", "sega_47"], "latitude": 35.8947669775133, "longitude": 139.63606442516175}, {"name": "あひるのたまご岩槻店", "address": "埼玉県さいたま市岩槻区本丸3-20-53マミーマート岩槻店2階あひるのたまご", "gameIds": ["carddass_403", "carddass_454", "carddass_481"], "latitude": 35.9548076, "longitude": 139.7076508}, {"name": "トイザらス岩槻店", "address": "埼玉県さいたま市岩槻区城町2-6-28 トイザらス岩槻", "gameIds": ["carddass_168", "carddass_239", "carddass_403", "carddass_418", "carddass_458", "carddass_481"], "latitude": 35.9481059, "longitude": 139.7140837}, {"name": "ウェアハウス岩槻店", "address": "埼玉県さいたま市岩槻区加倉 3-3-63", "gameIds": ["carddass_168", "carddass_403", "carddass_418", "konami_ANIMAL5", "konami_COLORCOLOTTA3", "konami_CVM", "konami_DDR", "konami_FTRI2", "konami_GCC", "konami_GIHPJM", "konami_GITADORADM", "konami_GITADORAGF", "konami_IIDX", "konami_JUBEAT", "konami_MFCU", "konami_MFCU_NEW", "konami_MILLIONET", "konami_NOSTALGIA", "konami_PANIC", "konami_PCHARGER", "konami_PMSP", "konami_QMA9", "konami_REFLECC", "konami_SDVX", "konami_SPINFEVER2", "konami_TD", "konami_VENUSFOUNTAIN", "konami_WEAC2014ALL", "konami_WEAC2014STD", "namco_gundam-kizuna", "namco_gundam-vs-extreme-ac2", "namco_gundam-vs-extreme-acmb-on", "namco_taiko", "namco_tk7fr-r2", "namco_wanganmaxi6", "sega_29", "sega_35", "sega_47", "sega_58", "sega_60", "sega_78", "sega_86", "sega_88", "sega_89", "sega_91", "sega_94", "sega_96", "taito_dff", "taito_nxl2"], "latitude": 35.941179, "longitude": 139.6861123}, {"name": "ゲームパークエムランド岩槻店", "address": "埼玉県さいたま市岩槻区本丸 3-20-53 マミーマート岩槻店2F", "gameIds": ["carddass_239", "carddass_403", "carddass_418", "carddass_454", "carddass_458", "carddass_481", "namco_taiko"], "latitude": 35.954808, "longitude": 139.707651}, {"name": "イトーヨーカドー 浦和店", "address": "埼玉県さいたま市浦和区仲町1-7-1 イトーヨーカドー浦和", "gameIds": ["carddass_168", "carddass_239", "carddass_403", "carddass_418", "carddass_454", "carddass_458"], "latitude": 35.860399, "longitude": 139.6554675}, {"name": "アミューズメントクラブ浦和", "address": "埼玉県さいたま市浦和区仲町 1-10-7", "gameIds": ["konami_BOMBERGIRL", "konami_IIDX", "konami_JUBEAT", "konami_MFCU", "konami_MFCU_NEW", "konami_NOSTALGIA", "konami_QMA9", "konami_REFLECC", "konami_SDVX", "konami_SHOGI2", "konami_WEAC2014ALL", "konami_WEAC2014STD", "namco_db-zenkai", "namco_gundam-vs-extreme-ac2", "namco_taiko", "sega_24", "sega_29", "sega_58", "sega_88", "sega_89", "sega_92", "sega_96", "taito_nxl", "taito_nxl2"], "latitude": 35.86026, "longitude": 139.6535399}, {"name": "プレイランドイオン北浦和店", "address": "埼玉県さいたま市浦和区常盤 10-20-29 イオン北浦和店3F", "gameIds": ["carddass_239", "carddass_403", "carddass_418", "namco_db-zenkai", "namco_mariokart-acgpdx", "namco_taiko", "sega_34", "taito_denshadego"], "latitude": 35.8715502, "longitude": 139.6385992}, {"name": "MEGAドン・キホーテ浦和原山店", "address": "埼玉県さいたま市緑区原山4-3-3 MEGAドン・キホーテ浦和原山", "gameIds": ["carddass_239", "carddass_403", "carddass_418", "carddass_454", "carddass_458"], "latitude": 35.870825, "longitude": 139.674542}, {"name": "モーリーファンタジー浦和美園店", "address": "埼玉県さいたま市緑区大門 3710 イオンモール浦和美園 イオン浦和美園店3F", "gameIds": ["carddass_168", "carddass_239", "carddass_403", "carddass_418", "carddass_454", "carddass_458", "carddass_481", "konami_TSUM", "namco_mariokart-acgpdx", "namco_taiko"], "latitude": 35.891227, "longitude": 139.731012}, {"name": "宝島 浦和原山店", "address": "埼玉県さいたま市緑区原山 4-3-3 MEGAドン・キホーテ浦和原山店2F", "gameIds": ["carddass_168", "carddass_239", "carddass_403", "carddass_418", "carddass_458", "namco_taiko"], "latitude": 35.871004, "longitude": 139.674499}, {"name": "ウェアハウス東浦和店", "address": "埼玉県さいたま市緑区東浦和 1-5-8 ロイヤルヒルズ池田", "gameIds": ["carddass_418", "namco_taiko"], "latitude": 35.864271, "longitude": 139.701877}, {"name": "宝島 浦和美園店", "address": "埼玉県さいたま市緑区美園5-50-1イオンモール浦和美園店 2F", "gameIds": ["carddass_168", "carddass_239", "carddass_403", "carddass_418", "carddass_458", "carddass_481", "konami_DDR", "konami_GCC", "konami_IIDX", "konami_JUBEAT", "konami_NOSTALGIA", "konami_PCHARGER", "konami_PMSP", "konami_REFLECC", "konami_TSUM", "namco_db-zenkai", "namco_mariokart-acgpdx", "namco_taiko", "namco_wanganmaxi6", "sega_34", "sega_58", "sega_91", "sega_94", "sega_96", "taito_groovecoaster"], "latitude": 35.8912268, "longitude": 139.731012}, {"name": "ウェアハウスカラオケ三橋店", "address": "埼玉県さいたま市西区三橋6-955-1", "gameIds": ["sega_47"], "latitude": 35.9158957, "longitude": 139.59574}, {"name": "ゲームピコ大宮西", "address": "埼玉県さいたま市西区三橋 6-607-13 イオン大宮西店3F", "gameIds": ["namco_mariokart-acgpdx", "namco_taiko"], "latitude": 35.917994, "longitude": 139.589601}, {"name": "イオン大宮西店", "address": "埼玉県さいたま市西区三橋6-607-13", "gameIds": ["carddass_239", "carddass_403", "carddass_418", "carddass_458", "carddass_481"], "latitude": 35.917994, "longitude": 139.589601}, {"name": "ウェアハウス三橋店", "address": "埼玉県さいたま市西区三橋6-955-1 ウェアハウス三橋", "gameIds": ["carddass_168", "carddass_239", "carddass_403", "carddass_418", "carddass_454", "carddass_458", "konami_ANIMAL5", "konami_COLORCOLOTTA3", "konami_CVM", "konami_DDR", "konami_EKEC2", "konami_FEATUREPREMIUM", "konami_FF3", "konami_FTRI2", "konami_GIHPJM", "konami_GITADORADM", "konami_GITADORAGF", "konami_IIDX", "konami_JUBEAT", "konami_METEOSPARK", "konami_MFCU", "konami_MFCU_HG", "konami_MFCU_NEW", "konami_MILLIONET", "konami_NOSTALGIA", "konami_PANIC", "konami_PCHARGER", "konami_PMSP", "konami_QMA9", "konami_REFLECC", "konami_SDVX", "konami_SHOGI2", "konami_SPINFEVER3", "konami_TD", "konami_WEAC2014ALL", "konami_WEAC2014STD", "konami_WONDERMARCH", "konami_dreamsphere", "namco_db-zenkai", "namco_gundam-kizuna", "namco_gundam-vs-extreme-ac2", "namco_gundam-vs-extreme-acmb-on", "namco_taiko", "namco_tk7fr-r2", "namco_wanganmaxi6", "sega_24", "sega_29", "sega_34", "sega_43", "sega_47", "sega_58", "sega_60", "sega_76", "sega_78", "sega_8", "sega_82", "sega_85", "sega_86", "sega_88", "sega_89", "sega_91", "sega_94", "sega_96", "sega_kancolle-arcade", "taito_dff", "taito_groovecoaster", "taito_gunslinger-stratos", "taito_nxl", "taito_nxl2", "taito_starwing"], "latitude": 35.91579143123197, "longitude": 139.59584728836057}, {"name": "スクウェアワン草加店", "address": "埼玉県さいたま市見沼区春野2-8 パトリア東大宮2階", "gameIds": ["carddass_168"], "latitude": 35.9566674, "longitude": 139.6598474}, {"name": "キラキラAsobox東大宮店", "address": "埼玉県さいたま市見沼区春野 2-8 パトリア東大宮3F", "gameIds": ["konami_BBCH", "konami_BOMBERGIRL", "konami_IIDX", "konami_JUBEAT", "konami_NOSTALGIA", "konami_PCHARGER", "konami_SDVX", "namco_gundam-vs-extreme-ac2", "namco_mariokart-acgpdx", "namco_taiko", "namco_tk7fr-r2", "namco_wanganmaxi6", "sega_58", "sega_60", "sega_78", "sega_82", "sega_85", "sega_94", "sega_96", "sega_kancolle-arcade"], "latitude": 35.9566674, "longitude": 139.6598474}, {"name": "ウェアハウス大和田店", "address": "埼玉県さいたま市見沼区大和田町1-1154-1 ゲオ大和田", "gameIds": ["carddass_481", "namco_taiko"], "latitude": 35.921746, "longitude": 139.65238}, {"name": "志度ファミリーボウル", "address": "香川県さぬき市志度1057", "gameIds": ["konami_MFCU", "konami_MFCU_NEW"], "latitude": 34.32589, "longitude": 134.185633}, {"name": "アミューズメントパークMG志度店", "address": "香川県さぬき市志度2431番地1パルティフジ志度店 別棟", "gameIds": ["carddass_168", "carddass_239", "carddass_418", "carddass_458", "namco_taiko", "sega_29", "sega_58"], "latitude": 34.315379218343296, "longitude": 134.1704666256561}, {"name": "プラサカプコンつがる柏店", "address": "青森県つがる市柏稲盛幾世41 イオンモールつがる柏シネマ棟内1階", "gameIds": ["carddass_239", "carddass_403", "carddass_418", "carddass_458"], "latitude": 40.802996, "longitude": 140.417022}, {"name": "ゲームランドつがる柏店", "address": "青森県つがる市柏稲盛幾世 41 イオンモールつがる柏本館2F", "gameIds": ["namco_gundam-vs-extreme-ac2", "namco_lostland", "namco_taiko", "namco_wanganmaxi6", "sega_34", "sega_58", "sega_78", "sega_82", "sega_88", "sega_89", "sega_91", "sega_93", "sega_94", "sega_96", "taito_dff", "taito_groovecoaster"], "latitude": 40.8026320651684, "longitude": 140.41665451349184}, {"name": "モーリーファンタジーつがる柏店", "address": "青森県つがる市柏稲盛幾世41-1 イオンモールつがる柏1階", "gameIds": ["carddass_168", "carddass_239", "carddass_403", "carddass_418", "carddass_454", "carddass_458", "carddass_481", "konami_TSUM", "namco_mariokart-acgpdx", "namco_taiko"], "latitude": 40.803095, "longitude": 140.416365}, {"name": "ピンクパンサー つくばみらい店", "address": "茨城県つくばみらい市陽光台1-14-1 TXみらい平駅前ピアシティー内", "gameIds": ["carddass_239", "carddass_403", "carddass_418", "konami_IIDX", "konami_JUBEAT", "konami_MFCU", "konami_MFCU_HG", "konami_MFCU_NEW", "konami_NOSTALGIA", "konami_PCHARGER", "konami_PMSP", "namco_gundam-kizuna", "namco_gundam-vs-extreme-ac2", "namco_taiko", "namco_tk7fr-r2", "namco_wanganmaxi6", "sega_24", "sega_29", "sega_34", "sega_47", "sega_58", "sega_60", "sega_76", "sega_78", "sega_8", "sega_86", "sega_88", "sega_89", "sega_91", "sega_93", "sega_94", "sega_96", "sega_kancolle-arcade", "taito_dff", "taito_groovecoaster", "taito_lovelive-sifacns", "taito_nxl", "taito_t_ffac"], "latitude": 35.995524428765755, "longitude": 140.0406751203766}, {"name": "ゆにろーず つくば店", "address": "茨城県つくば市大字小田4781", "gameIds": ["konami_MFCU", "konami_MFCU_NEW"], "latitude": 36.156029, "longitude": 140.111625}, {"name": "CybexSTEPつくば店", "address": "茨城県つくば市妻木724", "gameIds": ["konami_MFCU", "konami_MFCU_NEW"], "latitude": 36.09495, "longitude": 140.111718}, {"name": "トイザらス・ベビーザらスつくば店", "address": "茨城県つくば市研究学園C50街区1 イーアスつくば3F", "gameIds": ["carddass_239"], "latitude": 36.086771, "longitude": 140.083934}, {"name": "フエゴワールドつくば店", "address": "茨城県つくば市上横場2143 アッセ 2F", "gameIds": ["carddass_168"], "latitude": 36.0409966, "longitude": 140.0844038}, {"name": "アミューズメント工房つくば店", "address": "茨城県つくば市学園の森三丁目12番地6 スーパーセンタートライアルつくば学園都市店1階", "gameIds": ["carddass_168"], "latitude": 36.09586, "longitude": 140.0871}, {"name": "ピンクパンサーつくば店", "address": "茨城県つくば市小野崎 177-2", "gameIds": ["konami_GITADORADM", "konami_GITADORAGF", "konami_IIDX", "konami_JUBEAT", "konami_MFCU", "konami_MFCU_HG", "konami_MFCU_NEW", "konami_NOSTALGIA", "konami_PCHARGER", "konami_PMSP", "konami_QMA9", "konami_REFLECC", "konami_SDVX", "konami_WEAC2014ALL", "konami_WEAC2014WIDE", "namco_db-zenkai", "namco_gundam-kizuna", "namco_gundam-vs-extreme-ac2", "namco_tk7fr-r2", "namco_wanganmaxi6", "sega_29", "sega_34", "sega_43", "sega_58", "sega_60", "sega_76", "sega_78", "sega_85", "sega_88", "sega_89", "sega_91", "sega_92", "sega_93", "sega_94", "sega_96", "sega_kancolle-arcade", "taito_dff", "taito_groovecoaster", "taito_gunslinger-stratos", "taito_lovelive-sifacns", "taito_nxl2", "taito_t_ffac"], "latitude": 36.0768813, "longitude": 140.1047153}, {"name": "namco iiasつくば店", "address": "茨城県つくば市研究学園C-50街区1 イーアスつくば2F 2190", "gameIds": ["carddass_168", "carddass_239", "carddass_403", "carddass_418", "carddass_458", "konami_BOMBER_MEDAL", "konami_FEATUREPREMIUM", "konami_MARBLEFEVER", "konami_SDVX", "namco_mariokart-acgpdx", "namco_synchronica", "namco_taiko", "sega_58", "sega_87", "sega_88", "sega_93", "sega_96"], "latitude": 36.08642926353531, "longitude": 140.0838117486877, "logo": "namco"}, {"name": "namcoイオンモールつくば店", "address": "茨城県つくば市稲岡66-1 イオンモールつくば店内 3F", "gameIds": ["carddass_168", "carddass_239", "carddass_403", "carddass_418", "carddass_458", "namco_mariokart-acgpdx", "namco_synchronica", "namco_taiko", "namco_wanganmaxi6", "sega_58", "sega_87", "sega_88", "sega_96", "taito_groovecoaster"], "latitude": 36.033660886688686, "longitude": 140.1320541264588, "logo": "namco"}, {"name": "モーリーファンタジーつくば店", "address": "茨城県つくば市稲岡 66-1 イオンモールつくば イオンつくば店3F", "gameIds": ["carddass_168", "carddass_239", "carddass_403", "carddass_418", "carddass_458", "carddass_481", "konami_TSUM", "namco_mariokart-acgpdx", "namco_taiko", "sega_94"], "latitude": 36.0345557, "longitude": 140.132766}, {"name": "アミューズメントジャムジャムつくば店", "address": "茨城県つくば市竹園 1-9-2 デイズタウンつくば店B1F", "gameIds": ["carddass_168", "carddass_239", "carddass_418", "carddass_458", "konami_BBCH", "konami_CVM", "konami_DAN", "konami_DANEVOAC", "konami_DDR", "konami_EKEC", "konami_FEATUREPREMIUM", "konami_GITADORADM", "konami_GITADORAGF", "konami_IIDX", "konami_JUBEAT", "konami_MFCU", "konami_MFCU_NEW", "konami_MUSECA", "konami_NOSTALGIA", "konami_PANIC", "konami_PCHARGER", "konami_PMSP", "konami_QMA9", "konami_REFLECC", "konami_SDVX", "konami_SHOGI2", "konami_TD", "konami_WEAC2014ALL", "konami_WEAC2014WIDE", "namco_db-zenkai", "namco_gundam-vs-extreme-ac2", "namco_gundam-vs-extreme-acmb-on", "namco_synchronica", "namco_taiko", "namco_wanganmaxi6", "sega_24", "sega_29", "sega_34", "sega_58", "sega_78", "sega_92", "sega_94", "sega_96", "taito_dff", "taito_groovecoaster", "taito_gunslinger-stratos", "taito_nxl", "taito_t_ffac"], "latitude": 36.07772936300693, "longitude": 140.11533164180298}, {"name": "ぷれいらんど373 勝田", "address": "茨城県ひたちなか市石川町 1-1 MEGAドン・キホーテ勝田店2F", "gameIds": ["namco_mariokart-acgpdx", "namco_taiko", "namco_wanganmaxi6"], "latitude": 36.393112, "longitude": 140.527458}, {"name": "MEGAドン・キホーテ勝田店", "address": "茨城県ひたちなか市石川町1-1 長崎屋勝田", "gameIds": ["carddass_239", "carddass_403", "carddass_418", "carddass_454", "carddass_458"], "latitude": 36.3931124, "longitude": 140.5274577}, {"name": "宝島 勝田店", "address": "茨城県ひたちなか市石川町1-1 長崎屋勝田2階", "gameIds": ["carddass_168", "carddass_239", "carddass_403", "carddass_418", "carddass_458", "carddass_481"], "latitude": 36.393173, "longitude": 140.52763}, {"name": "ビッグベンカフェ勝田店", "address": "茨城県ひたちなか市馬渡字西谷津2565-9", "gameIds": ["konami_MFCU", "konami_MFCU_NEW", "sega_29"], "latitude": 36.39908590606527, "longitude": 140.56131705232315}, {"name": "アミューズ ビバ", "address": "茨城県ひたちなか市東大島2-11-111Fゲームコーナー", "gameIds": ["konami_BOMBERGIRL", "konami_DAN", "konami_DDR", "konami_GITADORADM", "konami_GITADORAGF", "konami_IIDX", "konami_JUBEAT", "konami_MFCU", "konami_MFCU_HG", "konami_MFCU_NEW", "konami_NOSTALGIA", "konami_PCHARGER", "konami_PMSP", "konami_QMA9", "konami_REFLECC", "konami_SDVX", "konami_TSUM", "namco_gundam-kizuna", "namco_gundam-vs-extreme-ac2", "namco_mariokart-acgpdx", "namco_synchronica", "namco_taiko", "namco_tk7fr-r2", "namco_wanganmaxi6", "sega_24", "sega_29", "sega_34", "sega_43", "sega_47", "sega_58", "sega_60", "sega_76", "sega_78", "sega_82", "sega_85", "sega_87", "sega_88", "sega_89", "sega_91", "sega_92", "sega_93", "sega_94", "sega_96", "sega_kancolle-arcade", "taito_denshadego", "taito_dff", "taito_groovecoaster", "taito_gunslinger-stratos", "taito_nxl2", "taito_t_ffac"], "latitude": 36.406375, "longitude": 140.5318511}, {"name": "アミューズメントジャムジャムひたちなか本店新館", "address": "茨城県ひたちなか市田中後 40-2", "gameIds": ["carddass_168", "carddass_239", "carddass_403", "carddass_418", "carddass_458", "konami_CVM", "konami_DANEVOAC", "konami_DDR", "konami_EKEC", "konami_FEATUREPREMIUM", "konami_GCC", "konami_GITADORADM", "konami_GITADORAGF", "konami_GIVROAD", "konami_GIVROAD_STD", "konami_IIDX", "konami_JUBEAT", "konami_MFCU", "konami_MFCU_NEW", "konami_MILLIONET", "konami_NOSTALGIA", "konami_ORECA_PANDORA", "konami_PANIC", "konami_PCHARGER", "konami_PMSP", "konami_QMA9", "konami_REFLECC", "konami_SDVX", "konami_SPINFEVER3", "konami_TD", "konami_WEAC2014ALL", "konami_WEAC2014WIDE", "namco_gundam-kizuna", "namco_gundam-vs-extreme-ac2", "namco_gundam-vs-extreme-acmb-on", "namco_taiko", "namco_wanganmaxi6", "sega_29", "sega_34", "sega_58", "sega_60", "sega_76", "sega_78", "sega_92", "sega_94", "sega_96", "taito_groovecoaster", "taito_gunslinger-stratos", "taito_nxl", "taito_nxl2"], "latitude": 36.34750772741275, "longitude": 140.58008936560668}, {"name": "イトーヨーカドー埼玉大井店", "address": "埼玉県ふじみ野市西鶴ヶ岡1-3-15 ビバモ-ル埼玉大井", "gameIds": ["carddass_239", "carddass_403", "carddass_418", "carddass_454"], "latitude": 35.8639813, "longitude": 139.5023024}, {"name": "キッズクラブトムソーヤ", "address": "埼玉県ふじみ野市おれし野2-10-87 ソヨカふじみのSC2F", "gameIds": ["carddass_168", "carddass_481"], "latitude": 35.856966, "longitude": 139.524061}, {"name": "PALO埼玉大井店", "address": "埼玉県ふじみ野市西鶴ケ岡 1-3-15 ビバモール埼玉大井 プラザ棟2F", "gameIds": ["carddass_168", "carddass_239", "carddass_403", "carddass_418", "carddass_454", "carddass_458", "carddass_481", "konami_DDR", "konami_JUBEAT", "konami_MFCU", "konami_MFCU_NEW", "konami_NOSTALGIA", "konami_PCHARGER", "konami_PMSP", "konami_REFLECC", "konami_SDVX", "konami_TSUM", "namco_gundam-kizuna", "namco_mariokart-acgpdx", "namco_taiko", "namco_wanganmaxi6", "sega_34", "sega_58", "sega_82", "sega_88", "sega_93", "sega_94", "sega_96"], "latitude": 35.8639813, "longitude": 139.5023024}, {"name": "モーリーファンタジー大井店", "address": "埼玉県ふじみ野市ふじみ野 1-2-1 イオン大井店3F", "gameIds": ["carddass_168", "carddass_239", "carddass_403", "carddass_418", "carddass_454", "carddass_458", "carddass_481", "konami_TSUM", "namco_mariokart-acgpdx", "namco_taiko", "sega_47"], "latitude": 35.8598877, "longitude": 139.5143625}, {"name": "アミューズメントフィールドバイヨン", "address": "埼玉県ふじみ野市うれし野2丁目16番1号 LCモールうれし野2階", "gameIds": ["konami_FTRI3", "konami_GITADORADM", "konami_GITADORAGF", "konami_IIDX", "konami_JUBEAT", "konami_MFCU", "konami_MFCU_HG", "konami_MFCU_NEW", "konami_MUSECA", "konami_NOSTALGIA", "konami_PCHARGER", "konami_PMSP", "konami_QMA9", "konami_REFLECC", "konami_SC1", "konami_SDVX", "konami_WEAC2014ALL", "konami_WEAC2014WIDE", "namco_db-zenkai", "namco_gundam-kizuna", "namco_taiko", "namco_wanganmaxi6", "sega_24", "sega_29", "sega_34", "sega_43", "sega_58", "sega_60", "sega_76", "sega_78", "sega_89", "sega_91", "sega_94", "sega_96", "sega_kancolle-arcade", "taito_dff", "taito_groovecoaster", "taito_lovelive-sifacns", "taito_nxl", "taito_nxl2"], "latitude": 35.8561384, "longitude": 139.5223952}, {"name": "PALOむつ店", "address": "青森県むつ市中央 2-7-8 1F", "gameIds": ["carddass_168", "carddass_239", "carddass_403", "carddass_418", "carddass_454", "carddass_458", "konami_IIDX", "konami_JUBEAT", "konami_MFCU", "konami_MFCU_NEW", "konami_PCHARGER", "konami_PMSP", "konami_QMA9", "konami_REFLECC", "konami_SDVX", "konami_TSUM", "namco_mariokart-acgpdx", "namco_taiko", "namco_wanganmaxi6", "sega_34", "sega_47", "sega_58", "sega_87", "sega_88", "sega_89", "sega_93", "sega_96", "sega_kancolle-arcade"], "latitude": 41.2868804145717, "longitude": 141.18372967976234}, {"name": "ハロータイトー むつ店", "address": "青森県むつ市小川町 2-4-8 マエダ本店4F", "gameIds": ["carddass_168", "carddass_239", "carddass_418", "namco_mariokart-acgpdx", "namco_taiko", "sega_78"], "latitude": 41.2929102, "longitude": 141.2078406, "logo": "taito"}, {"name": "ナイル木曽川店", "address": "愛知県一宮市木曽川町黒田八ノ通51ー4アピタ木曽川店2F", "gameIds": ["konami_DDR", "konami_JUBEAT", "konami_PMSP", "konami_REFLECC"], "latitude": 35.344553, "longitude": 136.790407}, {"name": "GAME千秋", "address": "愛知県一宮市千秋町加納馬場字清水53", "gameIds": ["konami_MFCU", "konami_MFCU_NEW"], "latitude": 35.30692, "longitude": 136.865542}, {"name": "JOYJOY一宮店", "address": "愛知県一宮市森本3-23-19", "gameIds": ["konami_MFCU", "konami_MFCU_NEW"], "latitude": 35.28770244, "longitude": 136.8156326}, {"name": "まんがネットRAUM一宮インター店", "address": "愛知県一宮市浅野西大土98-1", "gameIds": ["konami_MFCU", "konami_MFCU_NEW"], "latitude": 35.294438, "longitude": 136.825058}, {"name": "ゲームピコ尾西", "address": "愛知県一宮市小信中島 東鵯平59 ピアゴ尾西店2F", "gameIds": ["namco_taiko"], "latitude": 35.312158, "longitude": 136.752253}, {"name": "アピタ一宮店 おもちゃ売場", "address": "愛知県一宮市両郷町1丁目6番地 アピタ一宮", "gameIds": ["carddass_239", "carddass_418", "carddass_481"], "latitude": 35.3113258, "longitude": 136.8166421}, {"name": "トイザらス木曽川店", "address": "愛知県一宮市木曽川町黒田字南八ツヶ池25-1イオンモール木曽川キリオ1F", "gameIds": ["carddass_239", "carddass_418"], "latitude": 35.3484964, "longitude": 136.7735494}, {"name": "セガイオンモール木曽川", "address": "愛知県一宮市木曽川町黒田八ヶ池25-1 イオンモール木曽川3階イオンモール木曽川", "gameIds": ["carddass_168", "carddass_239", "carddass_418", "carddass_458", "konami_ANIMAL5", "konami_MARBLEFEVER", "konami_MILLIONET", "namco_mariokart-acgpdx", "namco_taiko", "sega_34", "sega_47", "sega_58", "sega_78", "sega_87", "sega_88", "sega_94", "sega_96", "sega_kancolle-arcade"], "latitude": 35.34896885845113, "longitude": 136.7735999073791, "logo": "sega"}, {"name": "セガワールド尾西", "address": "愛知県一宮市篭屋 3-9-7 アソビックスびさい1F", "gameIds": ["carddass_168", "carddass_239", "carddass_418", "carddass_458", "konami_IIDX", "konami_JUBEAT", "konami_NOSTALGIA", "konami_PCHARGER", "konami_SDVX", "namco_mariokart-acgpdx", "namco_taiko", "namco_tk7fr-r2", "sega_29", "sega_34", "sega_43", "sega_47", "sega_58", "sega_60", "sega_76", "sega_78", "sega_86", "sega_88", "sega_89", "sega_91", "sega_93", "sega_96", "sega_kancolle-arcade"], "latitude": 35.309217775259924, "longitude": 136.7715209539673, "logo": "sega"}, {"name": "モーリーファンタジー木曽川店", "address": "愛知県一宮市木曽川町黒田字南八ツケ池 25-1 イオンモール木曽川 イオン木曽川店2F", "gameIds": ["carddass_168", "carddass_239", "carddass_403", "carddass_418", "carddass_454", "carddass_458", "carddass_481", "konami_TSUM", "namco_mariokart-acgpdx", "namco_taiko"], "latitude": 35.348496, "longitude": 136.773549}, {"name": "namcoテラスウォーク一宮店", "address": "愛知県一宮市両郷町 1-6 テラスウォーク一宮2F", "gameIds": ["carddass_168", "carddass_239", "carddass_418", "carddass_458", "namco_mariokart-acgpdx", "namco_synchronica", "namco_taiko"], "latitude": 35.310618, "longitude": 136.816756, "logo": "namco"}, {"name": "モーリーファンタジー妙興寺店", "address": "愛知県一宮市大和町妙興寺字白山西 3-2 ピアゴ妙興寺店3F", "gameIds": ["carddass_168", "carddass_239", "carddass_403", "carddass_454", "carddass_458", "namco_mariokart-acgpdx", "namco_taiko"], "latitude": 35.28677, "longitude": 136.797498}, {"name": "モーリーファンタジーメガドンキ大和店", "address": "愛知県一宮市大和町毛受字一本松19番地 MEGAドン・キホーテUNY一宮大和店 2F", "gameIds": ["carddass_168", "carddass_239", "carddass_403", "carddass_418", "carddass_454", "carddass_458", "namco_mariokart-acgpdx", "namco_taiko"], "latitude": 35.296765, "longitude": 136.783073}, {"name": "ゲームゾーン一宮店", "address": "愛知県一宮市羽衣町2-5-1 ゲームゾーン尾張一宮", "gameIds": ["carddass_168", "carddass_239", "carddass_403", "carddass_418", "carddass_454", "carddass_458", "konami_ANIMAL5", "konami_DDR", "konami_FEATUREPREMIUM", "konami_GCP", "konami_GITADORADM", "konami_GITADORAGF", "konami_IIDX", "konami_JUBEAT", "konami_MFCU", "konami_MFCU_HG", "konami_MFCU_NEW", "konami_MILLIONET", "konami_PCHARGER", "konami_PMSP", "konami_QMA9", "konami_REFLECC", "konami_SDVX", "konami_SHADOWPRINCESS", "konami_TSUNAGALOTTA2", "namco_db-zenkai", "namco_gundam-kizuna", "namco_gundam-vs-extreme-ac2", "namco_gundam-vs-extreme-acmb-on", "namco_saoac", "namco_taiko", "namco_tk7fr-r2", "namco_wanganmaxi6", "sega_24", "sega_29", "sega_34", "sega_43", "sega_47", "sega_58", "sega_60", "sega_76", "sega_78", "sega_85", "sega_86", "sega_89", "sega_91", "sega_93", "sega_94", "sega_96", "sega_kancolle-arcade", "taito_dff", "taito_gunslinger-stratos", "taito_lovelive-sifacns", "taito_starwing", "taito_t_ffac"], "latitude": 35.3058705, "longitude": 136.8106067}, {"name": "アピタ木曽川店ナイル", "address": "愛知県一宮市木曽川町黒田八ノ通 51-4 アピタ木曽川店2F", "gameIds": ["carddass_168", "carddass_239", "carddass_403", "carddass_418", "carddass_454", "carddass_458", "namco_mariokart-acgpdx", "namco_taiko"], "latitude": 35.34461, "longitude": 136.790635}, {"name": "モーリーファンタジーSuc一関", "address": "岩手県一関市狐禅寺字石ノ瀬11ー1SuC1F", "gameIds": ["konami_TSUM"], "latitude": 38.939527, "longitude": 141.153807}, {"name": "BINGO一関店", "address": "岩手県一関市山目字中野 92-1", "gameIds": ["konami_IIDX", "konami_JUBEAT", "konami_MFCU", "konami_MFCU_NEW", "konami_MFCU_STD", "konami_NOSTALGIA", "konami_PCHARGER", "konami_PMSP", "konami_SDVX", "konami_SPINFEVER3", "konami_WEAC2014ALL", "konami_WEAC2014STD", "namco_gundam-vs-extreme-ac2", "namco_taiko", "namco_tk7fr-r2", "namco_wanganmaxi6", "sega_24", "sega_29", "sega_34", "sega_43", "sega_58", "sega_60", "sega_76", "sega_78", "sega_87", "sega_89", "sega_94", "sega_96", "sega_kancolle-arcade", "taito_dff", "taito_groovecoaster", "taito_nxl", "taito_t_ffac"], "latitude": 38.933759975927046, "longitude": 141.11832127116395}, {"name": "モーリーファンタジー一関店", "address": "岩手県一関市山目 字泥田89-1 イオン一関店2F", "gameIds": ["carddass_168", "carddass_239", "carddass_403", "carddass_418", "carddass_454", "carddass_458", "konami_TSUM", "namco_mariokart-acgpdx", "namco_taiko", "sega_47"], "latitude": 38.9368534, "longitude": 141.1127822}, {"name": "モーリーファンタジースーパーセンター一関店", "address": "岩手県一関市狐禅寺 字石ノ瀬11-1 イオンスーパーセンター一関店1F", "gameIds": ["carddass_168", "carddass_239", "carddass_403", "carddass_418", "carddass_454", "carddass_458", "carddass_481", "namco_mariokart-acgpdx", "namco_taiko"], "latitude": 38.939652, "longitude": 141.153482}, {"name": "ゲームセンターベティ", "address": "石川県七尾市舟尾町ウ-38", "gameIds": ["konami_DAN", "konami_DDR", "konami_GITADORADM", "konami_GITADORAGF", "konami_IIDX", "konami_JUBEAT", "konami_MFCU", "konami_MFCU_NEW", "konami_NOSTALGIA", "konami_PCHARGER", "konami_PMSP", "konami_QMA9", "konami_REFLECC", "konami_SDVX", "sega_58", "sega_88", "sega_96"], "latitude": 37.06719494045102, "longitude": 136.90699148555836}, {"name": "フジグラン三原", "address": "広島県三原市円一町1-1-7 フジグラン三原", "gameIds": ["carddass_168", "carddass_239", "carddass_403", "carddass_418", "carddass_454", "carddass_458"], "latitude": 34.3941613, "longitude": 133.078527}, {"name": "モーリーファンタジー三原店", "address": "広島県三原市城町 2-13-1 イオン三原SC イオン三原店2F", "gameIds": ["carddass_168", "carddass_239", "carddass_403", "carddass_418", "carddass_454", "carddass_458", "carddass_481", "konami_TSUM", "namco_mariokart-acgpdx", "namco_taiko", "sega_47"], "latitude": 34.398800883812974, "longitude": 133.08720262217696}, {"name": "namcoフジグラン三原店", "address": "広島県三原市円一町 1-1-7 フジグラン三原2F", "gameIds": ["carddass_168", "carddass_239", "carddass_403", "carddass_418", "carddass_458", "namco_mariokart-acgpdx", "namco_synchronica", "namco_taiko", "sega_35"], "latitude": 34.39281561416764, "longitude": 133.07899906878663, "logo": "namco"}, {"name": "ゆう遊空間三島青木店", "address": "静岡県三島市青木72-1", "gameIds": ["konami_MFCU", "konami_MFCU_NEW"], "latitude": 35.10494864, "longitude": 138.9216557}, {"name": "イトーヨーカドー 三島店", "address": "静岡県三島市中田町9-30 イトーヨーカドー三島", "gameIds": ["carddass_168", "carddass_239", "carddass_403", "carddass_418", "carddass_454", "carddass_458"], "latitude": 35.1133224, "longitude": 138.9193793}, {"name": "ミシマトイス", "address": "静岡県三島市本町3-35 ミシマトイス", "gameIds": ["carddass_239", "carddass_418", "carddass_458"], "latitude": 35.1194802, "longitude": 138.9140269}, {"name": "ジョイランド三島", "address": "静岡県三島市梅名308-6", "gameIds": ["carddass_168", "carddass_239", "carddass_403", "carddass_418", "carddass_454", "carddass_458"], "latitude": 35.090434, "longitude": 138.928233}, {"name": "ジョイランドアミューズみしま店", "address": "静岡県三島市梅名308-6 1Fゲームコーナー", "gameIds": ["konami_IIDX", "konami_JUBEAT", "konami_PMSP", "konami_REFLECC", "konami_WEAC2014ALL", "konami_WEAC2014WIDE", "namco_gundam-vs-extreme-ac2", "namco_taiko", "namco_wanganmaxi6", "sega_24", "sega_29", "sega_34", "sega_47", "sega_58", "sega_78", "sega_88", "sega_91", "sega_94", "sega_96", "taito_groovecoaster"], "latitude": 35.09041595077819, "longitude": 138.9279397363482}, {"name": "わいわいランド三島店", "address": "静岡県三島市中田町 9-30 イトーヨーカドー三島店3F", "gameIds": ["carddass_239", "carddass_418", "namco_mariokart-acgpdx"], "latitude": 35.113309, "longitude": 138.919334}, {"name": "ネスタリゾート神戸", "address": "兵庫県三木市細川町垂穂 894-60", "gameIds": ["namco_taiko"], "latitude": 34.816745, "longitude": 135.059468}, {"name": "モーリーファンタジー三木青山店", "address": "兵庫県三木市志染町青山 3-9 イオン三木青山店2F", "gameIds": ["namco_mariokart-acgpdx", "namco_taiko", "sega_47"], "latitude": 34.7792014, "longitude": 135.0364537}, {"name": "モーリーファンタジー三木店", "address": "兵庫県三木市大村 字砂163 イオン三木店3F", "gameIds": ["carddass_168", "carddass_239", "carddass_403", "carddass_418", "carddass_454", "carddass_458", "carddass_481", "konami_TSUM", "namco_mariokart-acgpdx", "namco_taiko"], "latitude": 34.8055, "longitude": 134.972274}, {"name": "スマイルステーション 三次店", "address": "広島県三次市十日市東4-1-30 サングリーン三次店内", "gameIds": ["carddass_239", "carddass_403", "carddass_418", "carddass_481"], "latitude": 34.80414, "longitude": 132.859533}, {"name": "アミューズメントビートル2", "address": "広島県三次市南畑敷町 603-3", "gameIds": ["namco_gundam-kizuna", "sega_29", "sega_34", "sega_58"], "latitude": 34.8028187, "longitude": 132.880927}, {"name": "よこまちストア三沢店", "address": "青森県三沢市岡三沢2-1-5", "gameIds": ["sega_82"], "latitude": 40.68846517942397, "longitude": 141.37304756627043}, {"name": "三沢ボウル", "address": "青森県三沢市南町1-31-3255", "gameIds": ["konami_MFCU", "konami_MFCU_NEW"], "latitude": 40.673937, "longitude": 141.366769}, {"name": "ゲオ三沢", "address": "青森県三沢市栄町 2-31", "gameIds": ["namco_taiko"], "latitude": 40.67392, "longitude": 141.365196}, {"name": "モーリーファンタジー三沢店", "address": "青森県三沢市松園町 3-10-1 ビードルプラザ三沢SC1F", "gameIds": ["carddass_168", "carddass_239", "carddass_403", "carddass_418", "carddass_454", "carddass_458", "konami_JUBEAT", "konami_PMSP", "konami_REFLECC", "konami_TSUM", "namco_mariokart-acgpdx", "namco_taiko", "namco_wanganmaxi6", "sega_47"], "latitude": 40.6749926, "longitude": 141.3630299}, {"name": "モーリーファンタジー大木店", "address": "福岡県三潴郡大木町蛭池 1200 イオン大木SC イオンスーパーセンター大木店1F", "gameIds": ["carddass_168", "carddass_239", "carddass_403", "carddass_418", "carddass_454", "carddass_458", "carddass_481", "namco_mariokart-acgpdx", "namco_taiko", "sega_47"], "latitude": 33.22050193166784, "longitude": 130.4481965588261}, {"name": "アミューズメント ミール", "address": "兵庫県三田市対中町5-21", "gameIds": ["konami_DDR", "konami_GITADORADM", "konami_GITADORAGF", "konami_IIDX", "konami_JUBEAT", "konami_MFCU", "konami_MFCU_HG", "konami_MFCU_NEW", "konami_PCHARGER", "konami_PMSP", "konami_QMA9", "konami_REFLECC", "konami_SDVX", "konami_SHOGI2"], "latitude": 34.88047252, "longitude": 135.2295927}, {"name": "Amuse Space MIR", "address": "兵庫県三田市対中町 5-21", "gameIds": ["namco_gundam-kizuna", "namco_gundam-vs-extreme-acmb-on", "namco_taiko", "namco_tk7fr-r2", "sega_24", "sega_29", "sega_34", "sega_58", "sega_6", "sega_78", "sega_82", "sega_kancolle-arcade", "taito_dff", "taito_groovecoaster", "taito_nxl", "taito_nxl2"], "latitude": 34.8806357, "longitude": 135.2295503}, {"name": "プラザパル三田店", "address": "兵庫県三田市けやき台 1-6-2 イオン三田ウッディタウン1番街3F", "gameIds": ["carddass_168", "carddass_239", "carddass_403", "carddass_418", "carddass_454", "carddass_458", "carddass_481", "namco_mariokart-acgpdx", "namco_taiko"], "latitude": 34.908645, "longitude": 135.187321}, {"name": "ハローズガーデン新三田店ウッディタウン2番街", "address": "兵庫県三田市けやき台 1-6-4 イオン三田ウッディタウン2番街1F", "gameIds": ["carddass_239", "carddass_403", "carddass_418", "carddass_458", "carddass_481", "konami_TSUM", "namco_mariokart-acgpdx", "sega_94", "sega_96"], "latitude": 34.9081575, "longitude": 135.18615750000004}, {"name": "モーリーファンタジー三笠店", "address": "北海道三笠市岡山 1059-1 イオン三笠SC イオンスーパーセンター三笠店1F", "gameIds": ["carddass_168", "carddass_239", "carddass_403", "carddass_418", "carddass_454", "carddass_458", "konami_JUBEAT", "konami_PMSP", "konami_REFLECC", "konami_TSUM", "namco_mariokart-acgpdx", "namco_taiko", "sega_35", "sega_47"], "latitude": 43.2435815, "longitude": 141.8055111}, {"name": "キラキラAsobox三郷店", "address": "埼玉県三郷市三郷1-3-1ワオシティ三郷2F", "gameIds": ["konami_JUBEAT", "konami_MFCU", "konami_MFCU_STD"], "latitude": 35.843662, "longitude": 139.8843814}, {"name": "三郷ヤングボウル", "address": "埼玉県三郷市戸ヶ崎5-131", "gameIds": ["konami_JUBEAT", "konami_MFCU", "konami_MFCU_NEW", "konami_NOSTALGIA"], "latitude": 35.797059, "longitude": 139.859974}, {"name": "キッズプラザきゃらんど新三郷", "address": "埼玉県三郷市新三郷ららシティ 3-1-1 ららぽーと新三郷2F", "gameIds": ["namco_mariokart-acgpdx", "namco_taiko"], "latitude": 35.859544, "longitude": 139.866086}, {"name": "イトーヨーカドー 三郷店", "address": "埼玉県三郷市ピアラシティ一丁目1番地1", "gameIds": ["carddass_239", "carddass_418", "carddass_454", "carddass_458"], "latitude": 35.8433775, "longitude": 139.8541788}, {"name": "宝島 三郷店", "address": "埼玉県三郷市さつき平1-1-1MEGAドン・キホーテ三郷店1F", "gameIds": ["carddass_168", "carddass_239", "carddass_403", "carddass_418"], "latitude": 35.852464, "longitude": 139.867021}, {"name": "ラウンドワンスタジアムららぽーと新三郷店", "address": "埼玉県三郷市新三郷ららシティ3丁目1-1 ららぽーと新三郷 2階 20000番", "gameIds": ["carddass_168", "carddass_239", "carddass_403", "carddass_418", "carddass_454", "carddass_458", "carddass_481", "konami_ANIMAL5", "konami_BOMBERGIRL", "konami_BOMBER_MEDAL", "konami_COLORCOLOTTA3", "konami_CVM", "konami_DAN", "konami_DDR", "konami_DDR20TH", "konami_EKEC2", "konami_FEATUREPREMIUM", "konami_FTRI3", "konami_GITADORADM", "konami_GITADORAGF", "konami_GIWorldClassic", "konami_GIWorldClassic_GD", "konami_GRANDCROSS_LEGEND", "konami_IIDX", "konami_JUBEAT", "konami_MARBLEFEVER", "konami_MATSURI", "konami_MFCU", "konami_MFCU_NEW", "konami_MILLIONET", "konami_NOSTALGIA", "konami_ORECA_PANDORA", "konami_PANIC", "konami_PCHARGER", "konami_PMSP", "konami_QMA9", "konami_SDVX", "konami_SPINFEVER3", "konami_TD", "konami_TS1", "konami_TSUM", "konami_TSUNAGALOTTA2", "konami_dreamsphere", "namco_gundam-vs-extreme-ac2", "namco_mariokart-acgpdx", "namco_synchronica", "namco_taiko", "namco_wanganmaxi6", "sega_29", "sega_34", "sega_43", "sega_47", "sega_58", "sega_60", "sega_76", "sega_78", "sega_82", "sega_86", "sega_87", "sega_88", "sega_89", "sega_91", "sega_93", "sega_96", "sega_kancolle-arcade", "taito_denshadego", "taito_dff", "taito_groovecoaster", "taito_lovelive-sifacns", "taito_starwing", "taito_t_ffac"], "latitude": 35.85948058394654, "longitude": 139.86713965158992, "logo": "round1"}, {"name": "ゲームパニック三郷店", "address": "埼玉県三郷市ピアラシティ1-1-200スーパービバホーム三郷店シネコン棟1F", "gameIds": ["carddass_168", "carddass_239", "carddass_418", "carddass_458", "carddass_481", "konami_ANIMAL5", "konami_BBCH", "konami_BOMBER_MEDAL", "konami_COLORCOLOTTA3", "konami_CVM", "konami_DAN", "konami_DDR", "konami_DDR20TH", "konami_EKEC2", "konami_FEATUREPREMIUM", "konami_FTRI3", "konami_GITADORADM", "konami_GITADORAGF", "konami_GIWorldClassic", "konami_GIWorldClassic_GD", "konami_GRANDCROSS_LEGEND", "konami_IIDX", "konami_JUBEAT", "konami_MARBLEFEVER", "konami_MFCU", "konami_MFCU_HG", "konami_MFCU_NEW", "konami_MILLIONET", "konami_NOSTALGIA", "konami_PANIC", "konami_PCHARGER", "konami_SDVX", "konami_SHADOWPRINCESS", "konami_SPINFEVER3", "konami_TD", "konami_TSUM", "konami_TSUNAGALOTTA2", "konami_VENUSFOUNTAIN", "konami_dreamsphere", "namco_gundam-kizuna", "namco_gundam-vs-extreme-ac2", "namco_saoac", "namco_taiko", "namco_tk7fr-r2", "namco_wanganmaxi6", "sega_29", "sega_34", "sega_43", "sega_47", "sega_58", "sega_60", "sega_76", "sega_78", "sega_85", "sega_86", "sega_88", "sega_89", "sega_91", "sega_92", "sega_93", "sega_94", "sega_96", "sega_kancolle-arcade", "taito_denshadego", "taito_dff", "taito_lovelive-sifacns", "taito_nxl2", "taito_t_ffac"], "latitude": 35.842186, "longitude": 139.8548677}, {"name": "ラクガキ王国三郷店", "address": "埼玉県三郷市ピアラシティ 1-1-1 イトーヨーカドー三郷店2F", "gameIds": ["carddass_239", "carddass_403", "carddass_418", "carddass_454", "carddass_458", "namco_taiko"], "latitude": 35.84326, "longitude": 139.854407}, {"name": "ラウンドワンみえ川越インターチェンジ店", "address": "三重県三重郡川越町南福崎 851-1", "gameIds": ["konami_ANIMAL5", "konami_BOMBERGIRL", "konami_BOMBER_MEDAL", "konami_COLORCOLOTTA3", "konami_CVM", "konami_DAN", "konami_DDR", "konami_DDR20TH", "konami_EKEC2", "konami_FEATUREPREMIUM", "konami_FTRI3", "konami_GITADORADM", "konami_GITADORAGF", "konami_GIWorldClassic", "konami_GIWorldClassic_VR_DX", "konami_GRANDCROSS_LEGEND", "konami_IIDX", "konami_JUBEAT", "konami_MARBLEFEVER", "konami_MFCU", "konami_MFCU_HG", "konami_MFCU_NEW", "konami_MILLIONET", "konami_NOSTALGIA", "konami_PANIC", "konami_PCHARGER", "konami_PMSP", "konami_QMA9", "konami_REFLECC", "konami_SDVX", "konami_SPINFEVER3", "konami_TD", "konami_TSUM", "konami_TSUNAGALOTTA2", "konami_WEAC2014ALL", "konami_WEAC2014WIDE", "konami_dreamsphere", "namco_db-zenkai", "namco_gundam-kizuna", "namco_gundam-vs-extreme-ac2", "namco_mariokart-acgpdx", "namco_synchronica", "namco_taiko", "namco_wanganmaxi6", "sega_29", "sega_34", "sega_43", "sega_58", "sega_60", "sega_76", "sega_78", "sega_82", "sega_85", "sega_86", "sega_87", "sega_88", "sega_89", "sega_91", "sega_92", "sega_96", "sega_kancolle-arcade", "taito_groovecoaster", "taito_gunslinger-stratos", "taito_lovelive-sifacns", "taito_starwing", "taito_t_ffac"], "latitude": 35.02290147217703, "longitude": 136.68352991904908, "logo": "round1"}, {"name": "JOYJOYアソビックスあさひ", "address": "三重県三重郡朝日町大字小向字長割181アソビックスあさひ1F", "gameIds": ["konami_MFCU", "konami_MFCU_NEW"], "latitude": 35.0304813, "longitude": 136.6704353}, {"name": "アソビックスゲームワールド", "address": "三重県三重郡朝日町小向 181 アソビックスあさひ内", "gameIds": ["namco_mariokart-acgpdx", "namco_taiko", "sega_29", "sega_34", "sega_58", "sega_78", "sega_88", "sega_91", "sega_96"], "latitude": 35.0306354, "longitude": 136.6728597}, {"name": "MECHAイオンタウン菰野店", "address": "三重県三重郡菰野町大字宿野字新明田357 イオンタウン菰野", "gameIds": ["carddass_168", "carddass_239", "carddass_418", "carddass_454"], "latitude": 35.0051655, "longitude": 136.5293426}, {"name": "ゲームパークMECHA菰野店", "address": "三重県三重郡菰野町宿野字神明田 357 イオンタウン菰野内", "gameIds": ["konami_MFCU", "konami_MFCU_NEW", "konami_NOSTALGIA", "namco_lostland", "sega_24", "sega_29", "sega_58", "sega_94", "sega_96"], "latitude": 35.00621392483728, "longitude": 136.5289512423584}, {"name": "ユーズランド下田店", "address": "青森県上北郡おいらせ町中野平 40-1 イオンモール下田1F", "gameIds": ["carddass_168", "carddass_239", "carddass_403", "carddass_418", "carddass_458", "konami_BOMBERGIRL", "konami_DAN", "konami_DDR", "konami_DDR20TH", "konami_IIDX", "konami_JUBEAT", "konami_MFCU", "konami_MFCU_HG", "konami_MFCU_NEW", "konami_MUSECA", "konami_NOSTALGIA", "konami_PCHARGER", "konami_REFLECC", "konami_SDVX", "konami_TSUM", "namco_gundam-kizuna", "namco_gundam-vs-extreme-ac2", "namco_mariokart-acgpdx", "namco_saoac", "namco_taiko", "namco_tk7fr-r2", "namco_wanganmaxi6", "sega_34", "sega_43", "sega_58", "sega_60", "sega_72", "sega_76", "sega_78", "sega_82", "sega_85", "sega_87", "sega_88", "sega_89", "sega_91", "sega_92", "sega_93", "sega_96", "sega_kancolle-arcade", "taito_denshadego", "taito_dff", "taito_groovecoaster", "taito_gunslinger-stratos", "taito_lovelive-sifacns", "taito_nxl2", "taito_starwing"], "latitude": 40.6014566, "longitude": 141.41778390000002}, {"name": "モーリーファンタジー下田店", "address": "青森県上北郡おいらせ町中野平 40-1 イオンモール下田 イオン下田店2F", "gameIds": ["carddass_168", "carddass_239", "carddass_403", "carddass_418", "carddass_454", "carddass_458", "carddass_481", "konami_TSUM", "namco_mariokart-acgpdx", "namco_taiko"], "latitude": 40.601962, "longitude": 141.419372}, {"name": "マックスバリュ野辺地店マックスキッズ", "address": "青森県上北郡野辺地町二本木24-1 マックスバリュ野辺地店内", "gameIds": ["konami_JUBEAT", "sega_78"], "latitude": 40.8659523, "longitude": 141.1118116}, {"name": "セスパ東大宮店", "address": "埼玉県上尾市原市4154", "gameIds": ["konami_MFCU", "konami_MFCU_HG", "konami_MFCU_NEW", "konami_PCHARGER"], "latitude": 35.95896242, "longitude": 139.6287925}, {"name": "フェスタ上尾店", "address": "埼玉県上尾市愛宕3-1-40バリュープラザ内2F", "gameIds": ["konami_GITADORADM", "konami_GITADORAGF", "konami_IIDX", "konami_JUBEAT", "konami_MFCU", "konami_MFCU_NEW", "konami_NOSTALGIA", "konami_PCHARGER", "konami_PMSP", "konami_REFLECC", "konami_SDVX", "konami_TSUM"], "latitude": 35.96438312, "longitude": 139.5967624}, {"name": "ベイシア上尾平塚", "address": "埼玉県上尾市平塚 2518-1 ベイシア上尾平塚店内ゲームコーナー", "gameIds": ["namco_taiko"], "latitude": 35.99292, "longitude": 139.599337}, {"name": "イトーヨーカドーアリオ上尾店", "address": "埼玉県上尾市大字壱丁目367番地 アリオ上尾", "gameIds": ["carddass_239", "carddass_403", "carddass_418", "carddass_454", "carddass_458"], "latitude": 35.9591051, "longitude": 139.569211}, {"name": "イトーヨーカドー上尾駅前店", "address": "埼玉県上尾市谷津2-1-1", "gameIds": ["carddass_239", "carddass_403", "carddass_418", "carddass_454"], "latitude": 35.9717421, "longitude": 139.5887812}, {"name": "オートパーラー上尾", "address": "埼玉県上尾市久保70-2", "gameIds": ["konami_MFCU", "konami_MFCU_NEW", "konami_PMSP", "sega_29"], "latitude": 35.9914929, "longitude": 139.5785728}, {"name": "上尾ミナミボウル", "address": "埼玉県上尾市緑丘 1-4-5", "gameIds": ["konami_IIDX", "konami_MFCU", "konami_MFCU_NEW", "konami_MFCU_STD", "konami_PMSP", "konami_QMA9", "konami_SC1", "namco_gundam-vs-extreme-ac2", "namco_tk7fr-r2", "sega_29"], "latitude": 35.9817855, "longitude": 139.5829506}, {"name": "ウェアハウス上尾店", "address": "埼玉県上尾市二ツ宮 1044", "gameIds": ["konami_ANIMAL5", "konami_FEATUREPREMIUM", "konami_FF3", "konami_FTRI2", "konami_GITADORADM", "konami_GITADORAGF", "konami_GIVROAD", "konami_GIVROAD_DX", "konami_IIDX", "konami_JUBEAT", "konami_MFCU", "konami_MFCU_HG", "konami_MFCU_NEW", "konami_MILLIONET", "konami_PANIC", "konami_PCHARGER", "konami_PMSP", "konami_QMA9", "konami_REFLECC", "konami_SPINFEVER2", "konami_TD", "konami_VENUSFOUNTAIN", "konami_WEAC2014ALL", "konami_WEAC2014STD", "namco_gundam-kizuna", "namco_gundam-vs-extreme-ac2", "namco_gundam-vs-extreme-acmb-on", "namco_taiko", "namco_tk7fr-r2", "namco_wanganmaxi6", "sega_29", "sega_47", "sega_58", "sega_60", "sega_78", "sega_8", "sega_86", "sega_88", "sega_89", "sega_91", "sega_96", "sega_kancolle-arcade", "taito_dff"], "latitude": 35.9812984, "longitude": 139.5998607}, {"name": "アピナ上尾店", "address": "埼玉県上尾市緑丘 3-3-11-2 P・A・P・A上尾ショッピングアベニュー プリンセス棟別棟", "gameIds": ["carddass_168", "carddass_239", "carddass_418", "carddass_458", "konami_IIDX", "konami_JUBEAT", "konami_MFCU", "konami_MFCU_NEW", "konami_NOSTALGIA", "konami_ORECA_PANDORA", "konami_PCHARGER", "konami_QMA9", "konami_REFLECC", "konami_SDVX", "konami_dreamsphere", "namco_gundam-kizuna", "namco_gundam-vs-extreme-ac2", "namco_mariokart-acgpdx", "namco_taiko", "namco_tk7fr-r2", "namco_wanganmaxi6", "sega_24", "sega_34", "sega_43", "sega_58", "sega_60", "sega_76", "sega_78", "sega_85", "sega_86", "sega_88", "sega_89", "sega_92", "sega_93", "sega_94", "sega_96", "sega_kancolle-arcade", "taito_dff", "taito_lovelive-sifacns", "taito_nxl", "taito_nxl2", "taito_t_ffac"], "latitude": 35.98824657086851, "longitude": 139.58082229811703}, {"name": "ラウンドワンスタジアム上尾店", "address": "埼玉県上尾市大字平塚917番地1", "gameIds": ["carddass_168", "carddass_239", "carddass_403", "carddass_418", "carddass_458", "carddass_481", "konami_BBC", "konami_BOMBERGIRL", "konami_BOMBER_MEDAL", "konami_COLORCOLOTTA3", "konami_CVM", "konami_DAN", "konami_DDR", "konami_DDR20TH", "konami_EKEC2", "konami_FEATUREPREMIUM", "konami_FTRI3", "konami_GITADORADM", "konami_GITADORAGF", "konami_GIWorldClassic", "konami_GIWorldClassic_VR_DX", "konami_GRANDCROSS_LEGEND", "konami_IIDX", "konami_JUBEAT", "konami_MARBLEFEVER", "konami_MFCU", "konami_MFCU_HG", "konami_MFCU_NEW", "konami_MILLIONET", "konami_NOSTALGIA", "konami_PANIC", "konami_PCHARGER", "konami_PMSP", "konami_QMA9", "konami_REFLECC", "konami_SDVX", "konami_SHOGI2", "konami_SPINFEVER3", "konami_TD", "konami_TSUM", "konami_TSUNAGALOTTA2", "konami_WEAC2014ALL", "konami_WEAC2014WIDE", "konami_dreamsphere", "namco_db-zenkai", "namco_gundam-kizuna", "namco_gundam-vs-extreme-ac2", "namco_mariokart-acgpdx", "namco_taiko", "namco_wanganmaxi6", "sega_29", "sega_34", "sega_43", "sega_58", "sega_60", "sega_76", "sega_78", "sega_82", "sega_85", "sega_86", "sega_87", "sega_88", "sega_89", "sega_91", "sega_92", "sega_96", "sega_kancolle-arcade", "taito_denshadego", "taito_dff", "taito_gunslinger-stratos", "taito_nxl", "taito_starwing", "taito_t_ffac"], "latitude": 35.98573208623946, "longitude": 139.60784023306576, "logo": "round1"}, {"name": "FESTA上尾店", "address": "埼玉県上尾市愛宕 3-1-40 バリュープラザ上尾愛宕店2F", "gameIds": ["carddass_168", "carddass_239", "carddass_403", "carddass_418", "carddass_454", "carddass_458", "carddass_481", "namco_db-zenkai", "namco_mariokart-acgpdx", "namco_taiko", "namco_wanganmaxi6", "sega_58", "sega_78", "sega_82", "sega_87", "sega_88", "sega_91", "sega_94", "sega_96", "taito_groovecoaster", "taito_t_ffac"], "latitude": 35.9646627, "longitude": 139.5967779}, {"name": "ファミリーランド上尾駅前店", "address": "埼玉県上尾市谷津 2-1-1 ショーサンプラザ5F", "gameIds": ["carddass_403", "carddass_418", "carddass_458", "namco_taiko", "sega_34"], "latitude": 35.97188102659533, "longitude": 139.58874096686475}, {"name": "龍宮ガーデンアリオ上尾店", "address": "埼玉県上尾市大字壱丁目367番地アリオ上尾店内2階龍宮ガーデン", "gameIds": ["carddass_168", "carddass_239", "carddass_403", "carddass_418", "carddass_458", "konami_TSUM", "namco_mariokart-acgpdx", "namco_synchronica", "namco_taiko", "namco_wanganmaxi6", "sega_58", "sega_82", "sega_87", "sega_94", "sega_96"], "latitude": 35.96160124123082, "longitude": 139.56547774174192}, {"name": "JOYJOY上田材木町店", "address": "長野県上田市常田3-5-35", "gameIds": ["konami_MFCU", "konami_MFCU_NEW"], "latitude": 36.396165, "longitude": 138.265398}, {"name": "M&M", "address": "長野県上田市東内3024-1", "gameIds": ["konami_MFCU", "konami_MFCU_NEW"], "latitude": 36.31048591, "longitude": 138.2168324}, {"name": "イトーヨーカドーアリオ上田店", "address": "長野県上田市天神3-5-1 アリオ上田", "gameIds": ["carddass_168", "carddass_239", "carddass_403", "carddass_418", "carddass_454", "carddass_458"], "latitude": 36.399584, "longitude": 138.2442114}, {"name": "セガワールド上田", "address": "長野県上田市上田 1847-1", "gameIds": ["carddass_168", "carddass_239", "carddass_418", "carddass_458", "konami_NOSTALGIA", "namco_gundam-vs-extreme-ac2", "namco_mariokart-acgpdx", "namco_taiko", "namco_tk7fr-r2", "sega_24", "sega_29", "sega_34", "sega_43", "sega_58", "sega_60", "sega_76", "sega_78", "sega_86", "sega_88", "sega_89", "sega_91", "sega_92", "sega_96", "sega_kancolle-arcade", "taito_dff", "taito_groovecoaster", "taito_nxl", "taito_t_ffac"], "latitude": 36.412773338736194, "longitude": 138.26193523028996, "logo": "sega"}, {"name": "アピナ上田店", "address": "長野県上田市秋和359-1 アピナ上田", "gameIds": ["carddass_168", "carddass_239", "carddass_403", "carddass_418", "carddass_458", "carddass_481", "konami_GITADORADM", "konami_GITADORAGF", "konami_IIDX", "konami_JUBEAT", "konami_MFCU", "konami_MFCU_NEW", "konami_NOSTALGIA", "konami_PCHARGER", "konami_PMSP", "konami_QMA9", "konami_REFLECC", "konami_SDVX", "konami_SPINFEVER3", "konami_WEAC2014ALL", "konami_WEAC2014WIDE", "konami_dreamsphere", "namco_db-zenkai", "namco_gundam-kizuna", "namco_gundam-vs-extreme-ac2", "namco_lostland", "namco_mariokart-acgpdx", "namco_taiko", "namco_wanganmaxi6", "sega_29", "sega_34", "sega_43", "sega_58", "sega_60", "sega_76", "sega_78", "sega_85", "sega_86", "sega_88", "sega_89", "sega_93", "sega_94", "sega_96", "sega_kancolle-arcade", "taito_dff", "taito_groovecoaster", "taito_lovelive-sifacns", "taito_t_ffac"], "latitude": 36.41599169266077, "longitude": 138.22351052133183}, {"name": "namcoアリオ上田店", "address": "長野県上田市天神三丁目5番1号アリオ上田1階 1-21", "gameIds": ["carddass_239", "carddass_403", "carddass_418", "carddass_458", "namco_mariokart-acgpdx", "namco_synchronica", "namco_taiko", "sega_87"], "latitude": 36.39984299125944, "longitude": 138.24318188455027, "logo": "namco"}, {"name": "モーリーファンタジー上田店", "address": "長野県上田市常田 2-12-18 イオン上田SC イオン上田店2F", "gameIds": ["carddass_168", "carddass_239", "carddass_403", "carddass_418", "carddass_454", "carddass_458", "carddass_481", "konami_TSUM", "namco_mariokart-acgpdx", "namco_taiko", "sega_47"], "latitude": 36.3923569, "longitude": 138.2574499}, {"name": "おもちゃのあおき イオンモール熊本店", "address": "熊本県上益城郡嘉島町大字上島字長池2232 イオンモール熊本2階", "gameIds": ["carddass_403", "carddass_418"], "latitude": 32.7448449, "longitude": 130.7400464}, {"name": "楽市楽座イオンモール熊本クレア店", "address": "熊本県上益城郡嘉島町大字上島字長池2232 イオンモール熊本店 2F", "gameIds": ["carddass_239", "carddass_418", "carddass_454", "carddass_458", "konami_ANIMAL5", "konami_FEATUREPREMIUM", "konami_MARBLEFEVER", "namco_mariokart-acgpdx", "namco_taiko", "namco_wanganmaxi6", "sega_58", "sega_78", "sega_82", "sega_87", "sega_96", "taito_denshadego"], "latitude": 32.73796417126194, "longitude": 130.7425713234345}, {"name": "モーリーファンタジーイオン熊本", "address": "熊本県上益城郡嘉島町上島字長池 2232 イオンモール熊本 イオン熊本店2F", "gameIds": ["carddass_239", "carddass_418", "carddass_454", "carddass_458", "carddass_481", "konami_TSUM", "namco_mariokart-acgpdx", "namco_taiko"], "latitude": 32.737448, "longitude": 130.745474}, {"name": "スペースクリエイト 自遊空間上越高田店", "address": "新潟県上越市土橋1665-2", "gameIds": ["konami_MFCU", "konami_MFCU_NEW"], "latitude": 37.128096, "longitude": 138.24705}, {"name": "こころっこ上越", "address": "新潟県上越市とよば 239-1 スーパーマーケットバロー上越店内", "gameIds": ["namco_taiko"], "latitude": 37.102635, "longitude": 138.276833}, {"name": "MEGAドン・キホーテ上越インター店", "address": "新潟県上越市富岡683-12 MEGAドン・キホーテ上越インター", "gameIds": ["carddass_239", "carddass_403", "carddass_418"], "latitude": 37.14446, "longitude": 138.2614971}, {"name": "お宝中古市場 上越店", "address": "新潟県上越市西城町2-6-11", "gameIds": ["carddass_239", "carddass_403", "carddass_418"], "latitude": 37.1100589, "longitude": 138.2496694}, {"name": "こころっこバロー上越モール店", "address": "新潟県上越市樋場新町土地区画整理事業地内16街区33外 バロー上越モール", "gameIds": ["carddass_239", "carddass_418", "carddass_458"], "latitude": 37.1037379, "longitude": 138.2729538}, {"name": "アピナ上越インター店", "address": "新潟県上越市下門前1661 アピナ上越インター", "gameIds": ["carddass_168", "carddass_239", "carddass_418", "carddass_454", "carddass_458", "konami_GCC", "konami_GITADORADM", "konami_GITADORAGF", "konami_IIDX", "konami_JUBEAT", "konami_MFCU", "konami_MFCU_NEW", "konami_NOSTALGIA", "konami_PCHARGER", "konami_PMSP", "konami_REFLECC", "konami_SDVX", "konami_SHOGI2", "konami_WEAC2014ALL", "konami_WEAC2014STD", "namco_gundam-kizuna", "namco_gundam-vs-extreme-ac2", "namco_lostland", "namco_mariokart-acgpdx", "namco_taiko", "namco_wanganmaxi6", "sega_24", "sega_29", "sega_34", "sega_43", "sega_47", "sega_58", "sega_60", "sega_76", "sega_78", "sega_85", "sega_88", "sega_89", "sega_91", "sega_92", "sega_93", "sega_94", "sega_96", "sega_kancolle-arcade", "taito_dff", "taito_groovecoaster", "taito_nxl2"], "latitude": 37.1542725, "longitude": 138.2556584}, {"name": "上越レジャーランボウル", "address": "新潟県上越市下門前薬島827-2 上越レジャーランボウル", "gameIds": ["carddass_168", "carddass_239", "carddass_418", "carddass_458", "konami_ANIMAL5", "konami_COLORCOLOTTA3", "konami_DAN", "konami_DDR", "konami_DDR20TH", "konami_FEATUREPREMIUM", "konami_GITADORADM", "konami_GITADORAGF", "konami_IIDX", "konami_JUBEAT", "konami_MFCU", "konami_MFCU_NEW", "konami_MILLIONET", "konami_NOSTALGIA", "konami_PCHARGER", "konami_PMSP", "konami_QMA9", "konami_REFLECC", "konami_SDVX", "namco_gundam-kizuna", "namco_gundam-vs-extreme-ac2", "namco_saoac", "namco_taiko", "namco_tk7fr-r2", "namco_wanganmaxi6", "sega_43", "sega_58", "sega_60", "sega_76", "sega_78", "sega_85", "sega_86", "sega_88", "sega_89", "sega_91", "sega_93", "sega_96", "sega_kancolle-arcade", "taito_groovecoaster", "taito_gunslinger-stratos", "taito_lovelive-sifacns", "taito_nxl2", "taito_t_ffac"], "latitude": 37.16410210261076, "longitude": 138.24897835166882}, {"name": "タイトーFステーション 上越店", "address": "新潟県上越市富岡3524 タイトーFステーション上越J-MAXシアター内", "gameIds": ["carddass_239", "carddass_418", "carddass_458", "carddass_481", "konami_BOMBERGIRL", "konami_COLORCOLOTTA3", "konami_DAN", "konami_DDR", "konami_DDR20TH", "konami_FEATUREPREMIUM", "konami_FTRI3", "konami_GITADORADM", "konami_GITADORAGF", "konami_IIDX", "konami_JUBEAT", "konami_MARBLEFEVER", "konami_MFCU", "konami_MFCU_HG", "konami_MFCU_NEW", "konami_MILLIONET", "konami_NOSTALGIA", "konami_PCHARGER", "konami_PMSP", "konami_SDVX", "konami_TSUM", "namco_gundam-vs-extreme-ac2", "namco_saoac", "namco_taiko", "namco_tk7fr-r2", "namco_wanganmaxi6", "sega_34", "sega_43", "sega_58", "sega_60", "sega_76", "sega_78", "sega_85", "sega_86", "sega_88", "sega_89", "sega_92", "sega_93", "sega_96", "sega_kancolle-arcade", "taito_denshadego", "taito_dff", "taito_groovecoaster", "taito_lovelive-sifacns", "taito_nxl2"], "latitude": 37.148191962934405, "longitude": 138.25904679802738, "logo": "taito"}, {"name": "モーリーファンタジー上越店", "address": "新潟県上越市富岡3458番地 上越ショッピングセンターアコーレ2階", "gameIds": ["carddass_168", "carddass_239", "carddass_403", "carddass_418", "carddass_454", "carddass_458", "carddass_481", "konami_TSUM", "namco_mariokart-acgpdx", "namco_taiko", "sega_47"], "latitude": 37.15234024791856, "longitude": 138.25873091345215}, {"name": "ピンクパンサー 下妻店", "address": "茨城県下妻市小島 884-10", "gameIds": ["konami_IIDX", "konami_JUBEAT", "konami_MFCU", "konami_MFCU_NEW", "konami_NOSTALGIA", "konami_PCHARGER", "konami_PMSP", "namco_gundam-kizuna", "namco_gundam-vs-extreme-ac2", "namco_gundam-vs-extreme-acmb-on", "namco_taiko", "namco_tk7fr-r2", "namco_wanganmaxi6", "sega_29", "sega_34", "sega_43", "sega_47", "sega_58", "sega_60", "sega_76", "sega_78", "sega_86", "sega_88", "sega_89", "sega_91", "sega_93", "sega_94", "sega_96", "sega_kancolle-arcade", "taito_dff", "taito_lovelive-sifacns", "taito_nxl", "taito_t_ffac"], "latitude": 36.1702653, "longitude": 139.9665309}, {"name": "モーリーファンタジー下妻店", "address": "茨城県下妻市堀篭 972-1 イオンモール下妻 イオン下妻店2F", "gameIds": ["carddass_168", "carddass_239", "carddass_403", "carddass_418", "carddass_454", "carddass_458", "carddass_481", "konami_GITADORADM", "konami_GITADORAGF", "konami_JUBEAT", "konami_PMSP", "konami_REFLECC", "konami_TSUM", "namco_mariokart-acgpdx", "namco_taiko", "namco_wanganmaxi6", "sega_47", "sega_58"], "latitude": 36.190045892870664, "longitude": 139.98972162229006}, {"name": "ゲームグース下妻店", "address": "茨城県下妻市堀篭 972-1 イオンモール下妻2F", "gameIds": ["carddass_168", "carddass_239", "carddass_403", "carddass_418", "carddass_454", "carddass_458", "carddass_481", "namco_db-zenkai", "namco_taiko", "namco_wanganmaxi6", "sega_94"], "latitude": 36.190045892870664, "longitude": 139.98980745297854}, {"name": "サービスエリアイン入善店", "address": "富山県下新川郡入善町上野柳堀7253-2", "gameIds": ["konami_GITADORADM", "konami_GITADORAGF", "konami_IIDX", "konami_JUBEAT", "konami_MFCU", "konami_MFCU_NEW", "konami_PCHARGER", "konami_QMA9", "konami_TSUM", "namco_gundam-vs-extreme-ac2", "namco_taiko", "sega_29", "sega_47"], "latitude": 36.9305056, "longitude": 137.4988314}, {"name": "アミュージアム周南店", "address": "山口県下松市中央町21-3 THE MALL周南3F", "gameIds": ["carddass_168", "carddass_239", "carddass_418", "carddass_458", "konami_ANIMAL5", "konami_FEATUREPREMIUM", "konami_FTRI", "konami_IIDX", "konami_JUBEAT", "konami_MARBLEFEVER", "konami_MFCU", "konami_MFCU_STD", "konami_PANIC", "konami_PCHARGER", "konami_REFLECC", "konami_SDVX", "konami_TD", "namco_gundam-kizuna", "namco_mariokart-acgpdx", "namco_taiko", "sega_34", "sega_58", "sega_60", "sega_76", "sega_86", "sega_94", "sega_96", "taito_dff"], "latitude": 34.018611646329546, "longitude": 131.86287648098562}, {"name": "ふぇすたらんど下松店", "address": "山口県下松市南花岡6丁目8番1号サンリブ下松店2F", "gameIds": ["carddass_168", "carddass_239", "carddass_403", "carddass_418", "carddass_454", "carddass_458", "carddass_481", "namco_mariokart-acgpdx", "namco_taiko"], "latitude": 34.030637, "longitude": 131.865498}, {"name": "PALO石橋店", "address": "栃木県下野市下古山 3362-1 ヨークタウン石橋内", "gameIds": ["carddass_168", "carddass_239", "carddass_403", "carddass_418", "carddass_454", "carddass_458", "konami_IIDX", "konami_JUBEAT", "konami_MFCU", "konami_MFCU_NEW", "konami_PCHARGER", "konami_PMSP", "konami_QMA9", "konami_REFLECC", "konami_SDVX", "namco_gundam-kizuna", "namco_mariokart-acgpdx", "namco_taiko", "namco_wanganmaxi6", "sega_58", "sega_78", "sega_82", "sega_89", "sega_94", "sega_kancolle-arcade", "taito_dff"], "latitude": 36.468733, "longitude": 139.8693837}, {"name": "山田レジャーセンター", "address": "岩手県下閉伊郡山田町川向町 7-15 オール内", "gameIds": ["namco_taiko", "namco_wanganmaxi6", "sega_78"], "latitude": 39.4649013, "longitude": 141.9507834}, {"name": "レンタルビデオ&ゲーム T&G", "address": "山口県下関市秋根本町2-1-11", "gameIds": ["sega_29"], "latitude": 34.01136469050875, "longitude": 130.95321550555718}, {"name": "ゲームセンタープレイランドサーカス", "address": "山口県下関市山の田本町 15-2", "gameIds": ["namco_tk7fr-r2"], "latitude": 33.988969, "longitude": 130.929607}, {"name": "まほーどう新下関コスパ店", "address": "山口県下関市石原300", "gameIds": ["taito_nxl2"], "latitude": 34.015132189447485, "longitude": 130.95028860692366}, {"name": "おもちゃのあおき 夢シティ下関店", "address": "山口県下関市伊倉新町3-1-1 ゆめシティ3F", "gameIds": ["carddass_239", "carddass_418", "carddass_454", "carddass_458"], "latitude": 34.0067732, "longitude": 130.9340336}, {"name": "トイザらス下関店", "address": "山口県下関市ゆめタウン1-1 ゆめタウン長府", "gameIds": ["carddass_239", "carddass_403", "carddass_418", "carddass_454", "carddass_458"], "latitude": 34.0294741, "longitude": 131.0114961}, {"name": "ラウンドワン下関店", "address": "山口県下関市東大和町1丁目3番15号", "gameIds": ["konami_ANIMAL5", "konami_COLORCOLOTTA3", "konami_CVM", "konami_DAN", "konami_DDR", "konami_DDR20TH", "konami_FEATUREPREMIUM", "konami_FTRI3", "konami_GITADORADM", "konami_GITADORAGF", "konami_IIDX", "konami_JUBEAT", "konami_MARBLEFEVER", "konami_MFCU", "konami_MFCU_NEW", "konami_MILLIONET", "konami_NOSTALGIA", "konami_PANIC", "konami_PCHARGER", "konami_PMSP", "konami_QMA9", "konami_REFLECC", "konami_SDVX", "konami_SHOGI2", "konami_SPINFEVER3", "konami_TD", "konami_TSUM", "konami_TSUNAGALOTTA2", "konami_WEAC2014ALL", "konami_WEAC2014WIDE", "namco_db-zenkai", "namco_gundam-kizuna", "namco_gundam-vs-extreme-ac2", "namco_mariokart-acgpdx", "namco_taiko", "namco_wanganmaxi6", "sega_29", "sega_34", "sega_58", "sega_60", "sega_76", "sega_78", "sega_82", "sega_86", "sega_88", "sega_89", "sega_91", "sega_96", "sega_kancolle-arcade", "taito_groovecoaster", "taito_nxl", "taito_t_ffac"], "latitude": 33.94530947115198, "longitude": 130.9205148595072, "logo": "round1"}, {"name": "サンゲームス・下関店", "address": "山口県下関市ゆめタウン 2-7", "gameIds": ["carddass_168", "carddass_239", "carddass_403", "carddass_418", "carddass_458", "konami_JUBEAT", "konami_MFCU", "konami_MFCU_NEW", "konami_QMA9", "konami_REFLECC", "namco_gundam-kizuna", "namco_gundam-vs-extreme-ac2", "namco_gundam-vs-extreme-acmb-on", "namco_taiko", "namco_tk7fr-r2", "sega_24", "sega_29", "sega_78", "sega_91", "sega_94", "sega_96", "sega_kancolle-arcade", "taito_dff", "taito_lovelive-sifacns", "taito_t_ffac"], "latitude": 34.0290769, "longitude": 131.0137903}, {"name": "アミパラ下関店", "address": "山口県下関市長府才川1丁目42-48 アミパラ下関", "gameIds": ["carddass_239", "carddass_418", "carddass_458", "konami_ANIMAL5", "konami_FEATUREPREMIUM", "konami_FTRI3", "konami_GITADORADM", "konami_GITADORAGF", "konami_IIDX", "konami_JUBEAT", "konami_MARBLEFEVER", "konami_MFCU", "konami_MFCU_NEW", "konami_MILLIONET", "konami_PANIC", "konami_PCHARGER", "konami_PMSP", "konami_REFLECC", "konami_SDVX", "konami_SHOGI2", "konami_TD", "namco_gundam-kizuna", "namco_gundam-vs-extreme-ac2", "namco_mariokart-acgpdx", "namco_taiko", "namco_tk7fr-r2", "sega_29", "sega_43", "sega_58", "sega_60", "sega_76", "sega_78", "sega_86", "sega_88", "sega_89", "sega_91", "sega_94", "sega_96", "sega_kancolle-arcade", "taito_dff", "taito_nxl2"], "latitude": 34.02541169656086, "longitude": 131.00750228344975}, {"name": "ゆめシティ ゆめパーク", "address": "山口県下関市伊倉新町 3-1-1 ゆめシティ3F", "gameIds": ["carddass_168", "carddass_239", "carddass_403", "carddass_418", "carddass_458", "carddass_481", "konami_PMSP", "konami_TSUM", "namco_mariokart-acgpdx", "namco_taiko", "sega_58", "sega_87", "sega_96"], "latitude": 34.006734845052264, "longitude": 130.93405505767214}, {"name": "モーリーファンタジー下関店", "address": "山口県下関市竹崎町 4-4-7 シーモールエスト4F", "gameIds": ["carddass_239", "carddass_403", "carddass_418", "carddass_454", "carddass_458", "namco_mariokart-acgpdx", "namco_taiko"], "latitude": 33.949445, "longitude": 130.92433}, {"name": "GAME・パフェ下関", "address": "山口県下関市竹崎町 4-4-8 シーモール下関4F", "gameIds": ["namco_mariokart-acgpdx", "namco_taiko", "sega_47", "sega_72"], "latitude": 33.948988729712035, "longitude": 130.92383603568612}, {"name": "ライフ経堂店", "address": "東京都世田谷区経堂5-32-6 ライフ経堂", "gameIds": ["carddass_168", "carddass_239", "carddass_403", "carddass_418", "carddass_458", "carddass_481"], "latitude": 35.6480745, "longitude": 139.6323906}, {"name": "玉川タカシマヤ", "address": "東京都世田谷区玉川3-17-1 玉川タカシマヤ", "gameIds": ["carddass_454", "carddass_458"], "latitude": 35.6147765, "longitude": 139.6268262}, {"name": "西友三軒茶屋店", "address": "東京都世田谷区太子堂4-24-8 西友三軒茶屋", "gameIds": ["carddass_168", "carddass_239", "carddass_403", "carddass_418", "carddass_454", "carddass_458"], "latitude": 35.6445839, "longitude": 139.6702486}, {"name": "ゲームセンターラスベガス", "address": "東京都世田谷区北沢 2-19-12 第三マツヤビル1F", "gameIds": ["konami_MFCU", "konami_MFCU_NEW", "konami_SHOGI2", "konami_WEAC2014ALL", "konami_WEAC2014WIDE", "namco_gundam-vs-extreme-ac2", "namco_mariokart-acgpdx", "namco_taiko", "namco_tk7fr-r2", "namco_wanganmaxi6", "sega_29", "sega_78"], "latitude": 35.660968, "longitude": 139.6674511}, {"name": "世田谷オークラボウル", "address": "東京都世田谷区桜 3-24-1", "gameIds": ["konami_IIDX", "konami_JUBEAT", "konami_MFCU", "konami_MFCU_HG", "konami_MFCU_NEW", "konami_PCHARGER", "konami_REFLECC", "konami_SDVX", "namco_gundam-vs-extreme-ac2", "namco_mariokart-acgpdx", "namco_taiko", "namco_tk7fr-r2", "namco_wanganmaxi6", "sega_34", "sega_43", "sega_58", "sega_60", "sega_82", "sega_88", "sega_91", "sega_92", "sega_94", "sega_96", "taito_dff"], "latitude": 35.64052, "longitude": 139.6386376}, {"name": "エムエムランド", "address": "東京都世田谷区北沢2-3-6 エムエムランド", "gameIds": ["carddass_168", "carddass_239", "carddass_403", "carddass_418", "carddass_458", "konami_BBCH", "konami_DAN", "konami_DANEVOAC", "konami_DDR", "konami_GITADORADM", "konami_GITADORAGF", "konami_IIDX", "konami_JUBEAT", "konami_MFCU", "konami_MFCU_NEW", "konami_NOSTALGIA", "konami_PCHARGER", "konami_PMSP", "konami_QMA9", "konami_REFLECC", "konami_SDVX", "konami_SHOGI2", "konami_TSUM", "konami_WEAC2014ALL", "konami_WEAC2014WIDE", "namco_gundam-kizuna", "namco_gundam-vs-extreme-ac2", "namco_gundam-vs-extreme-acmb-on", "namco_taiko", "namco_tk7fr-r2", "namco_wanganmaxi6", "sega_24", "sega_29", "sega_34", "sega_43", "sega_47", "sega_58", "sega_6", "sega_60", "sega_78", "sega_86", "sega_87", "sega_88", "sega_91", "sega_94", "sega_96", "sega_kancolle-arcade", "taito_groovecoaster", "taito_nxl", "taito_nxl2", "taito_t_ffac"], "latitude": 35.6601153, "longitude": 139.6681372}, {"name": "タイトーステーション 祖師ヶ谷大蔵店", "address": "東京都世田谷区砧8-10-1 プラッツ砧1F", "gameIds": ["carddass_168", "carddass_403", "carddass_418", "carddass_458", "konami_IIDX", "konami_MFCU", "konami_MFCU_HG", "konami_MFCU_NEW", "konami_PCHARGER", "konami_PMSP", "konami_QMA9", "konami_SDVX", "namco_gundam-vs-extreme-ac2", "namco_taiko", "namco_wanganmaxi6", "sega_58", "taito_dff", "taito_nxl2"], "latitude": 35.6425109, "longitude": 139.6082818, "logo": "taito"}, {"name": "大丸パークレーンズ", "address": "山梨県中央市下河東3053-1外部専門店棟3", "gameIds": ["konami_JUBEAT", "konami_MFCU", "konami_MFCU_NEW", "konami_REFLECC", "sega_34", "sega_35", "sega_78"], "latitude": 35.60741057571, "longitude": 138.54366436664804}, {"name": "ナムコランド リバーシティ店", "address": "山梨県中央市山之神 1122 オギノリバーシティーSC内", "gameIds": ["carddass_239", "carddass_418", "carddass_458", "namco_mariokart-acgpdx", "namco_synchronica", "namco_taiko"], "latitude": 35.614743, "longitude": 138.512839, "logo": "namco"}, {"name": "カバロ甲府昭和", "address": "山梨県中巨摩郡昭和町西条 13-1 イトーヨーカドー甲府昭和店2F", "gameIds": ["namco_mariokart-acgpdx", "namco_taiko"], "latitude": 35.639724, "longitude": 138.543952}, {"name": "プラサカプコン甲府店", "address": "山梨県中巨摩郡昭和町西条3717 プラサカプコン甲府", "gameIds": ["carddass_168", "carddass_403", "carddass_418", "namco_gundam-kizuna", "namco_gundam-vs-extreme-ac2", "namco_saoac", "namco_taiko", "namco_tk7fr-r2", "namco_wanganmaxi6", "sega_29", "sega_34", "sega_43", "sega_58", "sega_60", "sega_72", "sega_76", "sega_78", "sega_82", "sega_86", "sega_88", "sega_89", "sega_91", "sega_92", "sega_93", "sega_94", "sega_96", "sega_kancolle-arcade", "taito_dff", "taito_groovecoaster", "taito_gunslinger-stratos", "taito_lovelive-sifacns", "taito_nxl", "taito_nxl2", "taito_starwing"], "latitude": 35.64289593832039, "longitude": 138.5462509330963}, {"name": "楽市楽座イオンモール甲府昭和", "address": "山梨県中巨摩郡昭和町常永土地区画整理地内 1街区 イオンモール甲府昭和2F", "gameIds": ["carddass_239", "carddass_418", "carddass_454", "carddass_458", "konami_IIDX", "konami_JUBEAT", "konami_SDVX", "namco_mariokart-acgpdx", "namco_taiko", "namco_wanganmaxi6", "sega_58", "sega_78", "sega_87", "sega_88", "sega_96", "taito_lovelive-sifacns"], "latitude": 35.62322077692733, "longitude": 138.52757599765323}, {"name": "モーリーファンタジー甲府昭和店", "address": "山梨県中巨摩郡昭和町常永土地区画整理地内 1街区 イオンモール甲府昭和 イオン甲府昭和店3F", "gameIds": ["carddass_168", "carddass_239", "carddass_403", "carddass_418", "carddass_454", "carddass_458", "carddass_481", "namco_mariokart-acgpdx", "namco_taiko"], "latitude": 35.623218, "longitude": 138.527575}, {"name": "イトーヨーカドー 甲府昭和店", "address": "山梨県中巨摩郡昭和町西条 13-1 イトーヨーカドー甲府昭和店内", "gameIds": ["carddass_168", "carddass_239", "carddass_403", "carddass_418", "carddass_454", "carddass_458", "carddass_481", "namco_taiko"], "latitude": 35.639616, "longitude": 138.543952}, {"name": "あかとんぼ", "address": "岐阜県中津川市駒場 1480-5", "gameIds": ["konami_MFCU", "konami_MFCU_NEW", "konami_MFCU_STD", "namco_tk7fr-r2", "sega_29"], "latitude": 35.4797479, "longitude": 137.4852969}, {"name": "バローランド中津川店", "address": "岐阜県中津川市淀川町 3-8 ルビットタウン中津川2F", "gameIds": ["carddass_239", "carddass_418", "carddass_458", "namco_mariokart-acgpdx", "namco_taiko"], "latitude": 35.498219, "longitude": 137.507769}, {"name": "トライセン中津店", "address": "大分県中津市下池永 67-3", "gameIds": ["konami_EKEC2", "konami_GITADORADM", "konami_GITADORAGF", "konami_IIDX", "konami_JUBEAT", "konami_MFCU", "konami_MFCU_NEW", "konami_MFCU_STD", "konami_PCHARGER", "konami_PMSP", "konami_QMA9", "konami_REFLECC", "konami_SC1", "konami_SDVX", "konami_SHOGI2", "namco_gundam-kizuna", "namco_gundam-vs-extreme-ac2", "namco_mariokart-acgpdx", "namco_saoac", "namco_taiko", "namco_tk7fr-r2", "sega_29", "sega_58", "sega_60", "sega_76", "sega_85", "sega_88", "sega_89", "sega_92", "sega_94", "sega_96", "sega_kancolle-arcade", "taito_dff", "taito_groovecoaster", "taito_lovelive-sifacns", "taito_nxl", "taito_nxl2", "taito_t_ffac"], "latitude": 33.589677614707064, "longitude": 131.2110359533035}, {"name": "セガワールド中津", "address": "大分県中津市沖代町1-2-16 セガワールド中津", "gameIds": ["carddass_168", "carddass_239", "carddass_418", "carddass_458", "namco_gundam-kizuna", "namco_gundam-vs-extreme-ac2", "namco_mariokart-acgpdx", "namco_taiko", "namco_wanganmaxi6", "sega_24", "sega_29", "sega_34", "sega_43", "sega_58", "sega_60", "sega_76", "sega_78", "sega_82", "sega_86", "sega_88", "sega_89", "sega_91", "sega_92", "sega_96", "sega_kancolle-arcade", "taito_dff", "taito_t_ffac"], "latitude": 33.591210859151936, "longitude": 131.20199903677064, "logo": "sega"}, {"name": "ユーズランド三光店", "address": "大分県中津市三光佐知 1032 イオンモール三光2F", "gameIds": ["carddass_239", "carddass_418", "carddass_454", "carddass_458", "konami_JUBEAT", "konami_MFCU", "konami_MFCU_NEW", "konami_NOSTALGIA", "konami_PCHARGER", "konami_REFLECC", "namco_gundam-vs-extreme-ac2", "namco_mariokart-acgpdx", "namco_saoac", "namco_taiko", "namco_tk7fr-r2", "namco_wanganmaxi6", "sega_29", "sega_43", "sega_58", "sega_60", "sega_76", "sega_78", "sega_89", "sega_91", "sega_93", "sega_96", "sega_kancolle-arcade", "taito_denshadego", "taito_dff", "taito_groovecoaster", "taito_gunslinger-stratos", "taito_starwing", "taito_t_ffac"], "latitude": 33.5604305, "longitude": 131.1920613}, {"name": "ピノキオランド中津店", "address": "大分県中津市下池永 字熊本153-1 スーパーセンタートライアル中津店内", "gameIds": ["carddass_239", "carddass_418", "carddass_458", "namco_mariokart-acgpdx", "namco_taiko", "sega_35"], "latitude": 33.58699562680972, "longitude": 131.21376473240207}, {"name": "モーリーファンタジー三光店", "address": "大分県中津市三光佐知 1032 イオンモール三光 イオン三光店2F", "gameIds": ["carddass_239", "carddass_403", "carddass_418", "carddass_458", "konami_TSUM", "namco_mariokart-acgpdx", "namco_taiko"], "latitude": 33.560431, "longitude": 131.192061}, {"name": "ゆめタウン中津店ゆめキッズ", "address": "大分県中津市島田134-1 ゆめタウン中津3Fユメキッズ", "gameIds": ["carddass_239", "carddass_403", "carddass_418", "carddass_458", "namco_mariokart-acgpdx", "namco_synchronica", "namco_taiko"], "latitude": 33.602537, "longitude": 131.194743}, {"name": "中野TRF", "address": "東京都中野区中野5-52-15 中野ブロードウェイ 412-2", "gameIds": ["taito_nxl", "taito_nxl2"], "latitude": 35.709169744193986, "longitude": 139.66563610541834}, {"name": "アドアーズ中野", "address": "東京都中野区中野 5-52-15 中野ブロードウェイ1F 185", "gameIds": ["konami_ANIMAL5", "konami_COLORCOLOTTA3", "konami_CVM", "konami_GIWorldClassic", "konami_GIWorldClassic_VR_SD", "konami_IIDX", "konami_MFCU", "konami_MFCU_NEW", "konami_PANIC", "konami_PCHARGER", "konami_QMA9", "konami_TD", "namco_gundam-vs-extreme-ac2", "namco_taiko", "namco_wanganmaxi6", "sega_43", "sega_58", "sega_60", "sega_76", "sega_86", "sega_88", "sega_89", "sega_91", "sega_94", "sega_96", "sega_kancolle-arcade", "taito_dff", "taito_starwing"], "latitude": 35.70919237926914, "longitude": 139.6656938330658}, {"name": "namco中野店", "address": "東京都中野区中野 5-52-15 中野ブロードウェイ別館", "gameIds": ["carddass_168", "carddass_239", "carddass_403", "carddass_418", "carddass_458", "konami_DAN", "konami_MFCU", "konami_MFCU_HG", "konami_MFCU_NEW", "konami_NOSTALGIA", "konami_SDVX", "namco_db-zenkai", "namco_gundam-kizuna", "namco_gundam-vs-extreme-ac2", "namco_saoac", "namco_synchronica", "namco_taiko", "namco_tk7fr-r2", "sega_43", "sega_58", "sega_60", "sega_76", "sega_78", "sega_82", "sega_88", "sega_89", "sega_92", "sega_93", "sega_94", "sega_96", "sega_kancolle-arcade", "taito_denshadego", "taito_lovelive-sifacns", "taito_nxl"], "latitude": 35.709127585925984, "longitude": 139.6661370681055, "logo": "namco"}, {"name": "PEP中間", "address": "福岡県中間市上蓮花寺 2-1-1 ショッパーズモールなかま西館2F", "gameIds": ["namco_mariokart-acgpdx", "namco_taiko", "sega_78"], "latitude": 33.8227044, "longitude": 130.722669}, {"name": "SEGAARENA中間", "address": "福岡県中間市上蓮花寺 3-1-1 ショッパーズモールなかま内", "gameIds": ["carddass_168", "carddass_239", "carddass_418", "carddass_458", "konami_ANIMAL5", "konami_FEATUREPREMIUM", "konami_IIDX", "konami_MILLIONET", "konami_NOSTALGIA", "konami_PCHARGER", "konami_SDVX", "namco_mariokart-acgpdx", "namco_taiko", "namco_tk7fr-r2", "sega_29", "sega_34", "sega_43", "sega_58", "sega_60", "sega_76", "sega_78", "sega_86", "sega_88", "sega_89", "sega_91", "sega_94", "sega_96", "sega_kancolle-arcade", "taito_dff", "taito_groovecoaster", "taito_t_ffac"], "latitude": 33.8230744, "longitude": 130.7216062, "logo": "sega"}, {"name": "モーリーファンタジーなかま店", "address": "福岡県中間市上蓮花寺1丁目1番1号 ショッパーズモールなかま1F", "gameIds": ["carddass_168", "carddass_239", "carddass_403", "carddass_418", "carddass_454", "carddass_458", "carddass_481", "namco_mariokart-acgpdx", "namco_taiko"], "latitude": 33.823383, "longitude": 130.723078}, {"name": "モーリーファンタジーライカム店", "address": "沖縄県中頭郡北中城村アワセ土地区画整理事業区域内 4街区 イオンモール沖縄ライカム イオンライカム店4F", "gameIds": ["carddass_239", "carddass_418", "carddass_458", "namco_mariokart-acgpdx", "namco_taiko"], "latitude": 26.314286, "longitude": 127.796464}, {"name": "楽市楽座イオンモール沖縄ライカム店", "address": "沖縄県中頭郡北中城村アワセ土地区画整理事業区域内4街区 イオンモール沖縄ライカムライカム4階", "gameIds": ["carddass_239", "carddass_418", "carddass_454", "carddass_458", "konami_BBCH", "konami_IIDX", "konami_SDVX", "konami_TSUM", "namco_mariokart-acgpdx", "namco_taiko", "namco_wanganmaxi6", "sega_58", "sega_78", "sega_82", "sega_87", "sega_88", "sega_96", "taito_groovecoaster"], "latitude": 26.31428593550463, "longitude": 127.79646441034242}, {"name": "CLUBSEGA北谷", "address": "沖縄県中頭郡北谷町美浜 9-8 シーサイドスクウェア1F", "gameIds": ["konami_ANIMAL5", "konami_MILLIONET", "konami_NOSTALGIA", "namco_mariokart-acgpdx", "namco_taiko", "namco_tk7fr-r2", "namco_wanganmaxi6", "sega_29", "sega_43", "sega_58", "sega_60", "sega_76", "sega_78", "sega_82", "sega_86", "sega_87", "sega_88", "sega_89", "sega_91", "sega_93", "sega_96", "sega_kancolle-arcade"], "latitude": 26.3169305, "longitude": 127.7555816, "logo": "sega"}, {"name": "ゲームランドジョイジャングル美浜店", "address": "沖縄県中頭郡北谷町美浜 15-68 ドラゴンパレス2Fアミューズメントコーナー", "gameIds": ["carddass_168", "carddass_239", "carddass_418", "carddass_454", "carddass_458", "konami_DDR", "konami_GITADORADM", "konami_IIDX", "konami_JUBEAT", "konami_NOSTALGIA", "konami_PCHARGER", "konami_PMSP", "namco_db-zenkai", "namco_mariokart-acgpdx", "namco_synchronica", "namco_taiko", "sega_34", "sega_58", "sega_72", "sega_87", "sega_94"], "latitude": 26.3172082, "longitude": 127.7571399}, {"name": "モーリーファンタジー北谷店", "address": "沖縄県中頭郡北谷町美浜 8-3 イオン北谷SC イオン北谷店2F", "gameIds": ["carddass_239", "carddass_403", "carddass_418", "carddass_454", "carddass_458", "konami_TSUM", "namco_mariokart-acgpdx", "namco_taiko", "sega_47"], "latitude": 26.3143819, "longitude": 127.75715}, {"name": "ゲームランドジョイジャングルInカデナ", "address": "沖縄県中頭郡嘉手納町兼久 372 ネーブルカデナ南館2F", "gameIds": ["konami_DDR", "konami_IIDX", "konami_MFCU", "konami_MFCU_STD", "konami_PMSP", "konami_REFLECC", "konami_SC1", "namco_gundam-kizuna", "sega_29", "sega_6", "sega_87", "taito_groovecoaster", "taito_gunslinger-stratos", "taito_nxl"], "latitude": 26.3526544, "longitude": 127.7439478}, {"name": "NAMCOLANDイオンタウン読谷ショッピングセンター店", "address": "沖縄県中頭郡読谷村字古堅740番地 イオンタウン読谷ショッピングセンター", "gameIds": ["carddass_168", "carddass_239", "carddass_403", "carddass_418", "namco_gundam-vs-extreme-ac2", "namco_mariokart-acgpdx", "namco_saoac", "namco_taiko", "namco_tk7fr-r2", "namco_wanganmaxi6", "sega_58", "sega_78", "sega_88", "sega_93", "sega_96"], "latitude": 26.367977574996914, "longitude": 127.74603421045072, "logo": "namco"}, {"name": "プレビパワーシティ丸亀", "address": "香川県丸亀市新浜町 1-803-2 パワーシティ丸亀店内", "gameIds": ["namco_taiko"], "latitude": 34.293217, "longitude": 133.787818}, {"name": "トイザらス・ベビーザらス丸亀店", "address": "香川県丸亀市蓬莱町56-1 パブリックプラザ丸亀", "gameIds": ["carddass_239", "carddass_403", "carddass_418", "carddass_481"], "latitude": 34.295236, "longitude": 133.7851985}, {"name": "フジグラン丸亀", "address": "香川県丸亀市川西町南1280-1 フジグラン丸亀", "gameIds": ["carddass_239", "carddass_403", "carddass_418", "carddass_454", "carddass_458"], "latitude": 34.2416508, "longitude": 133.8351727}, {"name": "ポップンパーク丸亀", "address": "香川県丸亀市新浜町1-803-2", "gameIds": ["carddass_239", "carddass_403", "carddass_454", "carddass_458"], "latitude": 34.2930641, "longitude": 133.787765}, {"name": "セガ丸亀", "address": "香川県丸亀市蓬莱町56―1 パブリックプラザ丸亀", "gameIds": ["carddass_168", "carddass_239", "namco_mariokart-acgpdx", "namco_taiko", "sega_29", "sega_43", "sega_47", "sega_58", "sega_60", "sega_76", "sega_78", "sega_86", "sega_88", "sega_89", "sega_91", "sega_96", "sega_kancolle-arcade"], "latitude": 34.294854865373956, "longitude": 133.78519849999998, "logo": "sega"}, {"name": "アミパラ丸亀店", "address": "香川県丸亀市飯野町西分字川縁甲584-1 ハローズ丸亀モール内", "gameIds": ["carddass_168", "carddass_239", "carddass_418", "konami_ANIMAL5", "konami_COLORCOLOTTA3", "konami_CVM", "konami_DDR", "konami_FEATUREPREMIUM", "konami_FTRI3", "konami_GITADORADM", "konami_GITADORAGF", "konami_IIDX", "konami_MARBLEFEVER", "konami_MFCU", "konami_MFCU_HG", "konami_MFCU_NEW", "konami_MILLIONET", "konami_PANIC", "konami_PCHARGER", "konami_PMSP", "konami_SDVX", "konami_TD", "namco_gundam-kizuna", "namco_gundam-vs-extreme-ac2", "namco_taiko", "namco_tk7fr-r2", "namco_wanganmaxi6", "sega_29", "sega_58", "sega_60", "sega_76", "sega_78", "sega_82", "sega_86", "sega_88", "sega_89", "sega_91", "sega_94", "sega_96", "sega_kancolle-arcade", "taito_dff", "taito_gunslinger-stratos", "taito_lovelive-sifacns", "taito_nxl", "taito_starwing"], "latitude": 34.28480781129378, "longitude": 133.82103029947507}, {"name": "タイトーステーション丸亀店", "address": "香川県丸亀市川西町南1280番地1 フジグラン丸亀 バッハ棟2F", "gameIds": ["carddass_168", "carddass_239", "carddass_418", "carddass_454", "carddass_458", "carddass_481", "konami_JUBEAT", "konami_PMSP", "konami_REFLECC", "namco_mariokart-acgpdx", "namco_taiko", "taito_groovecoaster"], "latitude": 34.241655234612765, "longitude": 133.83517269999993, "logo": "taito"}, {"name": "BIG WAVE ゆめタウン丸亀", "address": "香川県丸亀市新田町 150 ゆめタウン丸亀3F", "gameIds": ["carddass_168", "carddass_239", "carddass_403", "carddass_418", "carddass_454", "carddass_458", "carddass_481", "konami_GIVROAD", "konami_GIVROAD_STD", "konami_JUBEAT", "konami_REFLECC", "namco_mariokart-acgpdx", "namco_taiko", "sega_34", "sega_35", "sega_87"], "latitude": 34.27351085300376, "longitude": 133.7853858245369}, {"name": "JOY POINT ニシダヤ", "address": "兵庫県丹波市氷上町本郷300 ゆめタウン1F", "gameIds": ["carddass_239", "carddass_403", "carddass_418", "carddass_458", "carddass_481"], "latitude": 35.158196, "longitude": 135.046019}, {"name": "アミューズメントパーク宝島 氷上店", "address": "兵庫県丹波市氷上町本郷300 ゆめタウン氷上2階", "gameIds": ["carddass_239", "carddass_418", "carddass_458"], "latitude": 35.158196, "longitude": 135.046019}, {"name": "アミューズメントパークVIVO氷上店", "address": "兵庫県丹波市氷上町本郷 300 ゆめタウン氷上2F", "gameIds": ["carddass_168", "namco_db-zenkai", "namco_mariokart-acgpdx", "namco_taiko", "namco_wanganmaxi6", "sega_72"], "latitude": 35.1588288, "longitude": 135.0453384}, {"name": "楽市楽座扶桑店", "address": "愛知県丹羽郡扶桑町南山名高塚5番地 イオンモール扶桑2階", "gameIds": ["carddass_239", "carddass_418", "carddass_458", "carddass_481"], "latitude": 35.361248, "longitude": 136.899842}, {"name": "楽市楽座 イオンモール扶桑店", "address": "愛知県丹羽郡扶桑町南山名字高塚 5-1 イオンモール扶桑2F", "gameIds": ["konami_ANIMAL5", "konami_BBCH", "konami_DDR", "konami_DDR20TH", "konami_GITADORADM", "konami_GITADORAGF", "konami_IIDX", "konami_JUBEAT", "konami_NOSTALGIA", "konami_PCHARGER", "konami_PMSP", "konami_QMA9", "konami_REFLECC", "konami_SDVX", "namco_mariokart-acgpdx", "namco_taiko", "namco_wanganmaxi6", "sega_34", "sega_58", "sega_78", "sega_82", "sega_87", "sega_88", "sega_91", "sega_93", "sega_96", "taito_groovecoaster", "taito_lovelive-sifacns"], "latitude": 35.36121554698814, "longitude": 136.90050818996588}, {"name": "モーリーファンタジー扶桑店", "address": "愛知県丹羽郡扶桑町南山名字高塚 5-1 イオンモール扶桑 イオン扶桑店2F", "gameIds": ["carddass_168", "carddass_239", "carddass_403", "carddass_418", "carddass_454", "carddass_458", "carddass_481", "konami_TSUM", "namco_mariokart-acgpdx", "namco_taiko"], "latitude": 35.361204, "longitude": 136.900497}, {"name": "アミパラ久御山店", "address": "京都府久世郡久御山町森 大内337 イオンタウン久御山内", "gameIds": ["konami_FTRI3", "konami_IIDX", "konami_MFCU", "konami_MFCU_HG", "konami_MFCU_NEW", "konami_PMSP", "konami_SDVX", "namco_gundam-vs-extreme-ac2", "namco_mariokart-acgpdx", "namco_taiko", "sega_58", "sega_78", "sega_88", "sega_89", "sega_91", "sega_96", "sega_kancolle-arcade", "taito_starwing"], "latitude": 34.8953846, "longitude": 135.7469162}, {"name": "モーリーファンタジー久御山店", "address": "京都府久世郡久御山町森南大内 156-1 イオンモール久御山 イオン久御山店2F", "gameIds": ["carddass_168", "carddass_239", "carddass_403", "carddass_418", "carddass_458", "carddass_481", "namco_mariokart-acgpdx", "namco_taiko", "sega_47"], "latitude": 34.89332480006164, "longitude": 135.74655783068852}, {"name": "イトーヨーカドーアリオ鷲宮店", "address": "埼玉県久喜市久本寺谷田7-1 アリオ内鷲宮", "gameIds": ["carddass_168", "carddass_239", "carddass_403", "carddass_418", "carddass_454", "carddass_458", "carddass_481"], "latitude": 36.0789596, "longitude": 139.6577741}, {"name": "ゲオ久喜", "address": "埼玉県久喜市久喜北2-6-18 ゲオ久喜", "gameIds": ["carddass_418"], "latitude": 36.0790292, "longitude": 139.6691898}, {"name": "ファイヤーボールモラージュ菖蒲店", "address": "埼玉県久喜市菖蒲町菖蒲6005-1 モラージュ菖蒲3階", "gameIds": ["carddass_239", "carddass_403", "carddass_418", "carddass_481"], "latitude": 36.0750349, "longitude": 139.6113344}, {"name": "イトーヨーカドー 久喜店", "address": "埼玉県久喜市中央4-9-11", "gameIds": ["carddass_168", "carddass_239", "carddass_403", "carddass_418", "carddass_454", "carddass_458"], "latitude": 36.0619954, "longitude": 139.666838}, {"name": "キャロム栗橋店", "address": "埼玉県久喜市高柳田中1741-3", "gameIds": ["konami_BBC", "konami_BOMBERGIRL", "konami_GITADORADM", "konami_GITADORAGF", "konami_IIDX", "konami_JUBEAT", "konami_MFCU", "konami_MFCU_NEW", "konami_NOSTALGIA", "konami_PCHARGER", "konami_QMA9", "konami_REFLECC", "konami_SDVX", "konami_SHOGI2", "namco_gundam-kizuna", "namco_gundam-vs-extreme-ac2", "namco_taiko", "namco_tk7fr-r2", "namco_wanganmaxi6", "sega_29", "sega_43", "sega_58", "sega_60", "sega_76", "sega_78", "sega_85", "sega_86", "sega_89", "sega_91", "sega_92", "sega_kancolle-arcade", "taito_dff", "taito_nxl", "taito_nxl2"], "latitude": 36.11728201500319, "longitude": 139.67363328849945}, {"name": "ソユープレイランド菖蒲店", "address": "埼玉県久喜市菖蒲町菖蒲6005番地1号 モラージュ菖蒲3F", "gameIds": ["carddass_168", "carddass_239", "carddass_403", "carddass_418", "carddass_454", "carddass_458", "carddass_481", "konami_IIDX", "konami_PMSP", "konami_TSUM", "namco_db-zenkai", "namco_mariokart-acgpdx", "namco_saoac", "namco_taiko", "namco_wanganmaxi6", "sega_58", "sega_78", "sega_82", "sega_88", "sega_89", "sega_93", "sega_94", "sega_96", "taito_denshadego", "taito_groovecoaster", "taito_lovelive-sifacns"], "latitude": 36.075662701184235, "longitude": 139.60986952994688}, {"name": "プレビ イトーヨーカドー久喜店", "address": "埼玉県久喜市中央4-9-11 イトーヨーカドー久喜店", "gameIds": ["carddass_168", "namco_taiko"], "latitude": 36.071069, "longitude": 139.675204}, {"name": "こころっこ東鷲宮-", "address": "埼玉県久喜市桜田 3-2-1 イオン東鷲宮店2F", "gameIds": ["carddass_168", "carddass_403", "carddass_418", "carddass_458", "carddass_481", "namco_taiko"], "latitude": 36.089581, "longitude": 139.681411}, {"name": "ワンパクオウコクアリオ鷲宮", "address": "埼玉県久喜市久本寺字谷田 7-1 アリオ鷲宮2F", "gameIds": ["carddass_168", "carddass_239", "carddass_403", "carddass_418", "carddass_454", "carddass_458", "namco_mariokart-acgpdx", "namco_taiko", "sega_34"], "latitude": 36.07838730453956, "longitude": 139.66039193599852}, {"name": "ラウンドワンスタジアムさいたま・栗橋", "address": "埼玉県久喜市小右衛門 192-1", "gameIds": ["konami_ANIMAL5", "konami_BOMBERGIRL", "konami_BOMBER_MEDAL", "konami_COLORCOLOTTA3", "konami_CVM", "konami_DAN", "konami_DDR", "konami_DDR20TH", "konami_EKEC2", "konami_FEATUREPREMIUM", "konami_FTRI3", "konami_GITADORADM", "konami_GITADORAGF", "konami_GIWorldClassic", "konami_GIWorldClassic_GD", "konami_GRANDCROSS_LEGEND", "konami_IIDX", "konami_JUBEAT", "konami_MARBLEFEVER", "konami_MFCU", "konami_MFCU_NEW", "konami_MILLIONET", "konami_NOSTALGIA", "konami_PANIC", "konami_PCHARGER", "konami_PMSP", "konami_QMA9", "konami_REFLECC", "konami_SDVX", "konami_SHOGI2", "konami_SPINFEVER3", "konami_TD", "konami_TSUM", "konami_TSUNAGALOTTA2", "konami_dreamsphere", "namco_db-zenkai", "namco_gundam-kizuna", "namco_gundam-vs-extreme-ac2", "namco_mariokart-acgpdx", "namco_taiko", "namco_wanganmaxi6", "sega_29", "sega_34", "sega_58", "sega_60", "sega_76", "sega_78", "sega_82", "sega_85", "sega_86", "sega_87", "sega_88", "sega_89", "sega_91", "sega_96", "sega_kancolle-arcade", "taito_dff", "taito_groovecoaster", "taito_nxl", "taito_starwing", "taito_t_ffac"], "latitude": 36.1235137, "longitude": 139.7151734, "logo": "round1"}, {"name": "TSUTAYA久慈", "address": "岩手県久慈市川崎町 11-22", "gameIds": ["namco_mariokart-acgpdx"], "latitude": 40.192094, "longitude": 141.770822}, {"name": "PALO久慈店", "address": "岩手県久慈市長内町第30地割32-2 久慈ショッピングセンター1階", "gameIds": ["carddass_168", "carddass_239", "carddass_403", "carddass_418", "carddass_454", "carddass_458", "carddass_481", "konami_IIDX", "konami_JUBEAT", "konami_MFCU", "konami_MFCU_NEW", "konami_REFLECC", "konami_TSUM", "namco_mariokart-acgpdx", "namco_taiko", "namco_wanganmaxi6", "sega_29", "sega_34", "sega_47", "sega_58", "sega_82", "sega_88", "sega_89", "sega_93", "sega_94"], "latitude": 40.18986157592543, "longitude": 141.78559756403195}, {"name": "マンガ倉庫豆津バイパス", "address": "福岡県久留米市大石町 262-2", "gameIds": ["namco_taiko"], "latitude": 33.313154, "longitude": 130.494}, {"name": "トイザらス久留米店", "address": "福岡県久留米市新合川1-3-30 ゆめタウン久留米別館2F", "gameIds": ["carddass_239", "carddass_403", "carddass_418", "carddass_458"], "latitude": 33.3206507, "longitude": 130.5374821}, {"name": "ユーズボウル久留米", "address": "福岡県久留米市東櫛原町字深町 1110", "gameIds": ["konami_DANEVOAC", "konami_DDR", "konami_GITADORADM", "konami_GITADORAGF", "konami_IIDX", "konami_JUBEAT", "konami_MFCU", "konami_MFCU_HG", "konami_MFCU_NEW", "konami_NOSTALGIA", "konami_PCHARGER", "konami_PMSP", "konami_REFLECC", "konami_SDVX", "namco_gundam-kizuna", "namco_mariokart-acgpdx", "namco_taiko", "sega_29", "sega_34", "sega_58", "sega_60", "sega_76", "sega_86", "sega_88", "sega_89", "sega_94", "sega_96"], "latitude": 33.32263504563559, "longitude": 130.516591109787}, {"name": "国分バッティングセンター", "address": "福岡県久留米市国分町 1408", "gameIds": ["konami_JUBEAT", "konami_MFCU", "konami_MFCU_HG", "konami_MFCU_NEW", "konami_REFLECC", "konami_SHOGI2", "namco_gundam-vs-extreme-ac2", "namco_tk7fr-r2", "sega_29", "sega_78"], "latitude": 33.29940960881137, "longitude": 130.53281974841002},